Event_Title,Date,Time,Venue,Address,url,Latitude,Longitude,Category
CIRCADIAN RHYTHMS,2025-04-14,16:08,Wax Music Lounge,"250 Flinders St, Melbourne VIC 3000, Australia",https://www.facebook.com/events/584862551173325/?event_time_id=584862611173319,-37.8176298,144.9661635,Music
Endgame Academy Soccer Clinic - Thornbury,2025-04-14,10:00,Darebin International Sports Centre,"281 Darebin Road Thornbury, VIC 3071",https://www.eventbrite.com.au/e/endgame-academy-soccer-clinic-thornbury-tickets-1314819674039?aff=ebdssbdestsearch,-37.7650109,145.0235937,
Broadway Bound | MELB | School Holiday Workshop,2025-04-14,10:00,Australian Institute of Music Melbourne,"120 King Street Melbourne, VIC 3000",https://www.eventbrite.com.au/e/broadway-bound-melb-school-holiday-workshop-tickets-1227131235559?aff=ebdssbdestsearch,-37.81714789999999,144.9564705,
WOMEN'S CIRCLES,2025-04-14,18:30,The Healing Garden Williamstown,"139 Nelson Place Williamstown, VIC 3016",https://www.eventbrite.com.au/e/womens-circles-tickets-1266853616269?aff=ebdssbdestsearch,-37.863395,144.904683,
MOVEMENT & PLAY HOLIDAY PROGRAM,2025-04-14,10:30,32 Amis Cres,"32 Amis Crescent Keilor East, VIC 3033",https://www.eventbrite.com.au/e/movement-play-holiday-program-tickets-1288974460309?aff=ebdssbdestsearch,-37.74807699999999,144.862017,
Monday Night Breathwork Class with Analu,2025-04-14,18:00,252 St Kilda Rd,"252 Saint Kilda Road St Kilda, VIC 3182",https://www.eventbrite.com.au/e/monday-night-breathwork-class-with-analu-tickets-1139178416309?aff=ebdssbdestsearch,-37.8633344,144.9858169,
Donation-Based Yoga Class,2025-04-14,09:30,Melbourne Theosophical Society,"234 Flinders Lane #Level 1 Melbourne, VIC 3000",https://www.eventbrite.com/e/donation-based-yoga-class-tickets-1253860493489?aff=ebdssbdestsearch,-37.816602,144.966291,
Beginner Friendly Tango Dance Classes,2025-04-14,18:00,I.AM.DANCE,"Kerr Street Fitzroy, VIC 3065",https://www.eventbrite.com.au/e/beginner-friendly-tango-dance-classes-tickets-1257768823409?aff=ebdssbdestsearch,-37.7968685,144.9798521,
Life drawing - Unassigned Gallery,2025-04-14,19:00,55 Edward St,"55 Edward Street Brunswick, VIC 3056",https://www.eventbrite.com/e/life-drawing-unassigned-gallery-tickets-1288074257779?aff=ebdssbdestsearch,-37.7738491,144.9631088,
Why The Long Face,2025-04-14,21:00,Tasma Terrace,"5 Parliament Place Melbourne, VIC 3002",https://www.eventbrite.co.uk/e/why-the-long-face-tickets-1088252696109?aff=ebdssbdestsearch,-37.8117589,144.9752047,
"BC #453 (Max Vegas, Charles Eddy, Ruby, Andrew 88 + more)",2025-04-14,08:00,onesixone,"161 High Street Prahran, VIC 3181",https://www.eventbrite.com.au/e/bc-453-max-vegas-charles-eddy-ruby-andrew-88-more-tickets-1315685202859?aff=ebdssbdestsearch,-37.85173229999999,144.9936589,
Murder Mystery Experience - Melbourne,2025-04-14,08:00,179 La Trobe St,"179 La Trobe Street Melbourne, VIC 3000",https://www.eventbrite.com/e/murder-mystery-experience-melbourne-tickets-1137771718839?aff=ebdssbdestsearch,-37.809415,144.9652062,
LEAP - Sacred Circle Full Moon Flow,2025-04-14,18:30,South Melbourne Life Saving Club,"72B Beaconsfield Parade Albert Park, VIC 3206",https://www.eventbrite.com.au/e/leap-sacred-circle-full-moon-flow-tickets-1254090752199?aff=ebdssbdestsearch,-37.84710949999999,144.9465725,
Ash and Marlies are... Amicable,2025-04-14,18:15,Tasma Terrace,"5 Parliament Place Melbourne, VIC 3002",https://www.eventbrite.co.uk/e/ash-and-marlies-are-amicable-tickets-1085018402249?aff=ebdssbdestsearch,-37.8117589,144.9752047,
Tonight! a clown who wanted to be loved?,2025-04-14,17:30,The Butterfly Club,"5 Carson Place Melbourne, VIC 3000",https://www.eventbrite.co.uk/e/tonight-a-clown-who-wanted-to-be-loved-tickets-1088250118399?aff=ebdssbdestsearch,-37.8154472,144.9652725,
Witches' Circle,2025-04-14,18:00,Moss Studios,"101 Evans Street Brunswick, VIC 3056",https://www.eventbrite.com.au/e/witches-circle-tickets-1301624787779?aff=ebdssbdestsearch,-37.77035559999999,144.9709215,
Comedy Untamed Melbourne Comedy Festival,2025-04-14,19:30,The Coopers Inn,"282 Exhibition Street Melbourne, VIC 3000",https://www.eventbrite.com.au/e/comedy-untamed-melbourne-comedy-festival-tickets-1149776405179?aff=ebdssbdestsearch,-37.809147,144.9695339,
Low-Cost Watercolour Painting Workshop,2025-04-14,10:00,383 High St,"383 High Street Preston, VIC 3072",https://www.eventbrite.com.au/e/low-cost-watercolour-painting-workshop-tickets-1297747099509?aff=ebdssbdestsearch,-37.740719,145.003302,
Pop Icon Dance - casual classes (Southbank),2025-04-14,06:45,NIDA - National Institute of Dramatic Art,"152 Sturt Street #Suite 4 Southbank, VIC 3006",https://www.eventbrite.com.au/e/pop-icon-dance-casual-classes-southbank-tickets-1307565957979?aff=ebdssbdestsearch,-37.8254475,144.9659146,
Snape: Life After Voldemort,2025-04-14,20:20,Tasma Terrace,"5 Parliament Place Melbourne, VIC 3002",https://www.eventbrite.co.uk/e/snape-life-after-voldemort-tickets-1086677675179?aff=ebdssbdestsearch,-37.8117589,144.9752047,
Tom Witcombe - Selfies at the 9/11 Museum (Melbourne Comedy Festival),2025-04-14,09:15,Bard's Apothecary,"24 Crossley Street #7 Melbourne, VIC 3000",https://www.eventbrite.com.au/e/tom-witcombe-selfies-at-the-911-museum-melbourne-comedy-festival-tickets-1096935827589?aff=ebdssbdestsearch,-37.811328,144.9711498,
Face-to Face General English Intermediate Class,2025-04-14,09:00,Concord English College - Best ELICOS College in Melbourne,"382-384 Lonsdale Street Melbourne, VIC 3000",https://www.eventbrite.com.au/e/face-to-face-general-english-intermediate-class-tickets-1238157354979?aff=ebdssbdestsearch,-37.8124231,144.9609901,
CIRCADIAN RHYTHMS,2025-04-14,16:05,Wax Music Lounge,"250 Flinders St, Melbourne VIC 3000, Australia",https://www.facebook.com/events/584862551173325/,-37.8176298,144.9661635,Music
Marley Del Prete APRIL Residency,2025-04-14,19:00,Bar Oussou,"653 Sydney Rd, Brunswick VIC 3056, Australia",https://www.facebook.com/events/2367376750312613/,-37.7618155,144.9628753,Music
Danny Bhoy | Melbourne,2025-04-14,20:58,Arts Centre Melbourne,"100 St Kilda Rd, Southbank VIC 3004, Australia",https://www.facebook.com/events/1254201262512042/,-37.8216405,144.9683143,Comedy
the stamps Residency at Merri Creek Tavern w/ Nick Keogh,2025-04-14,20:00,The Merri Creek Tavern,"111 High St, Northcote VIC 3070, Australia",https://www.facebook.com/events/1836633980470636/,-37.7794356,144.996838,Music
"‘Social Sanctuary’ with Think About You, Hot Glue + Greer Clemens Band",2025-04-14,19:00,Northcote Social Club,"301 High St, Northcote VIC 3070, Australia",https://www.facebook.com/events/3128099070672825/,-37.771471,144.998414,Music
The Libertines | Melbourne | SOLD OUT,2025-04-15,19:00,Forum Melbourne,"154 Flinders St, Melbourne VIC 3000, Australia",https://www.facebook.com/events/875602187999941/,-37.81644145,144.9693768124984,Music
Prokick Australia - MELBOURNE TRY-OUTS NFL/COLLEGE *MULTIPLE DATES*,2025-04-15,11:30,Paul Wade Field,"Aughtie Drive St Kilda, VIC 3182",https://www.eventbrite.com/e/prokick-australia-melbourne-try-outs-nflcollege-multiple-dates-tickets-1272181662599?aff=ebdssbdestsearch,-37.8528059,144.9724569,
Bachata Dance Class,2025-04-15,02:15,Nona Lee Sports Centre,"103 Tin Alley #Building Parkville, VIC 3010",https://www.eventbrite.com.au/e/bachata-dance-class-tickets-1297584122039?aff=ebdssbdestsearch,-37.79527789999999,144.9626463,
Spoken Word @ Bar Oussou!,2025-04-15,00:00,Bar Oussou,"653 Sydney Rd, Brunswick VIC 3056, Australia",https://www.facebook.com/events/807715171482397/,-37.7618155,144.9628753,Art
Trivia Tuesday's at Temperance Hotel!,2025-04-15,00:00,Temperance Hotel,"426 Chapel St, South Yarra VIC 3141, Australia",https://www.facebook.com/events/609896718629673/?event_time_id=624032413882770,-37.84306185,144.99489592695178,Games
Condensed Milk Tuesdays,2025-04-15,00:00,Section 8,"27-29 Tattersalls Ln, Melbourne VIC 3000, Australia",https://www.facebook.com/events/3806429379629971/,-37.8117457,144.965405,Unknown
TRIVIA hosted by COMFORTABLY FUN,2025-04-15,00:00,Mamma Chen's,"42A Albert St, Footscray VIC 3011, Australia",https://www.facebook.com/events/539160092134546/,-37.8047552,144.89727240000002,Games
"The Moops, Barkin’ Blue, E.J. Leonard - Old Bar",2025-04-15,19:30,The Old Bar,"74-76 Johnston St, Fitzroy VIC 3065, Australia",https://www.facebook.com/events/4057926387800402/,-37.79833,144.97711,Music
Tix at 12,2025-04-15,00:00,Arts Centre Melbourne,"100 St Kilda Rd, Southbank VIC 3004, Australia",https://www.facebook.com/events/473885795706627/?event_time_id=481829724912234,-37.8216405,144.9683143,Art
Allison Russell,2025-04-15,19:30,Melbourne Recital Centre,"31 Sturt St, Southbank VIC 3006, Australia",https://www.facebook.com/events/500513579513591/,-37.82408485,144.96758763141432,Music
Yarra Banks Jam @ Bar 303,2025-04-15,00:00,Bar 303,"303 High St, Northcote VIC 3070, Australia",https://www.facebook.com/events/589465910770603/?event_time_id=589468110770383,-37.7713296,144.99828116650363,Music
BRAZLOMBIA,2025-04-15,00:00,Wax Music Lounge,"250 Flinders St, Melbourne VIC 3000, Australia",https://www.facebook.com/events/585678634285012/?event_time_id=585678680951674,-37.8176298,144.9661635,Music
MNDS Games Night,2025-04-15,18:00,"Room 335, Learning and Teaching Building","19 Ancora Imparo Way Clayton, VIC 3168",https://www.eventbrite.com.au/e/mnds-games-night-tickets-1307833327689?aff=ebdssbdestsearch,-37.9139139,145.1325609,
SciencePlay Kids Holiday classes 4-11yo (April 2025),2025-04-15,09:00,SciencePlay Kids,"32 Lobelia Drive Altona North, VIC 3025",https://www.eventbrite.com.au/e/scienceplay-kids-holiday-classes-4-11yo-april-2025-tickets-1278923788479?aff=ebdssbdestsearch,-37.8440482,144.8419237,
School Holidays Bootcamp,2025-04-15,10:30,24 Scholar Dr,"24 Scholar Drive Bundoora, VIC 3083",https://www.eventbrite.com.au/e/school-holidays-bootcamp-tickets-1301632871959?aff=ebdssbdestsearch,-37.6827562,145.0733925,
KIDS DIY PIZZA PARTY !,2025-04-15,11:00,Little Party House,"First Floor 574/A North Road Ormond, VIC 3204",https://www.eventbrite.com.au/e/kids-diy-pizza-party-tickets-1296421213749?aff=ebdssbdestsearch,-37.909911,145.107705,
Theatre Choir: Create a Show in 3 Hours!,2025-04-15,14:00,25 Milton St,"25 Milton Street Nunawading, VIC 3131",https://www.eventbrite.com.au/e/theatre-choir-create-a-show-in-3-hours-tickets-1314220321359?aff=ebdssbdestsearch,-37.8274822,145.1699299,
School Holiday Workshop - Illusions in Art (Afternoon Session),2025-04-15,12:30,Paint for Fun,"252 Graham Street #Unit 1 Port Melbourne, VIC 3207",https://www.eventbrite.com.au/e/school-holiday-workshop-illusions-in-art-afternoon-session-tickets-1248921871939?aff=ebdssbdestsearch,-37.8386895,144.9385483,
Small Group Breathwork Journey,2025-04-15,19:00,Merkaba Studio,"15 Mills Street Cheltenham, VIC 3192",https://www.eventbrite.com.au/e/small-group-breathwork-journey-tickets-1252865768239?aff=ebdssbdestsearch,-37.9560125,145.0740554,
Joshy in Paris,2025-04-15,20:30,"Wheat, Wine & Whisky","284 Smith Street Collingwood, VIC 3066",https://www.eventbrite.com/e/joshy-in-paris-tickets-1307896416389?aff=ebdssbdestsearch,-37.8008428,144.9842391,
Pool and Gym Day Pass,2025-04-15,06:30,Stamford Plaza Melbourne,"111 Little Collins Street Melbourne, VIC 3000",https://www.eventbrite.com.au/e/pool-and-gym-day-pass-tickets-1253892559399?aff=ebdssbdestsearch,-37.8135512,144.9699174,
Tuesday Language Exchange at Diesel bar,2025-04-15,18:00,Diesel Bar & Eatery,"202 Little Lonsdale Street Melbourne, VIC 3000",https://www.eventbrite.com.au/e/tuesday-language-exchange-at-diesel-bar-tickets-1270326423529?aff=ebdssbdestsearch,-37.8107335,144.9634703,
Sensory Tray Session- EASTER EVENT,2025-04-15,10:00,Janefield Community Centre,"2 Manchester Crescent Bundoora, VIC 3083",https://www.eventbrite.com.au/e/sensory-tray-session-easter-event-tickets-1288751934729?aff=ebdssbdestsearch,-37.6830538,145.0745348,
Library Quest Workshops with Jess McGeachin,2025-04-15,10:30,State Library Victoria,"328 Swanston St Digital Lab Melbourne, VIC 3000",https://www.eventbrite.com.au/e/library-quest-workshops-with-jess-mcgeachin-tickets-1295310521639?aff=ebdssbdestsearch,-37.8097472,144.9654858,
Spanish Amigos Language Exchange [English x Spanish],2025-04-15,18:00,Diesel Bar & Eatery,"202 Little Lonsdale Street Melbourne, VIC 3000",https://www.eventbrite.com.au/e/spanish-amigos-language-exchange-english-x-spanish-tickets-1257678322719?aff=ebdssbdestsearch,-37.8107335,144.9634703,
Amader Boishakh,2025-04-15,13:00,"Glenn Dining Hall, LA trobe University, Bundoora Campus","Glenn Dining Hall La Trobe University Bundoora Campus Melbourne, VIC 3086",https://www.eventbrite.com.au/e/amader-boishakh-tickets-1300090368289?aff=ebdssbdestsearch,-37.7211681,145.0464572,
Floral Drawing Sessions,2025-04-15,11:30,Caelene Nee Glen,"143 Martin Street Brighton, VIC 3186",https://www.eventbrite.com.au/e/floral-drawing-sessions-tickets-1313384290769?aff=ebdssbdestsearch,-37.8971051,145.0033783,
The Art of Play: unique community art experience,2025-04-15,08:00,25 Milton St,"25 Milton Street Nunawading, VIC 3131",https://www.eventbrite.com.au/e/the-art-of-play-unique-community-art-experience-tickets-1319597454509?aff=ebdssbdestsearch,-37.8274822,145.1699299,
Youth Athlete Development Workshop: Strength & Nutrition,2025-04-15,13:00,17A Showers St,"17A Showers Street Preston, VIC 3072",https://www.eventbrite.com.au/e/youth-athlete-development-workshop-strength-nutrition-tickets-1260492199099?aff=ebdssbdestsearch,-37.7487879,145.0004162,
MSEP Emergency Birth program for Paramedics,2025-04-15,08:00,Kathleen Syme Library and Community Centre,"251 Faraday Street Carlton, VIC 3053",https://www.eventbrite.com.au/e/msep-emergency-birth-program-for-paramedics-tickets-1261871905839?aff=ebdssbdestsearch,-37.7986481,144.9652272,
The Art of Play: interactive community art experience,2025-04-15,08:00,25 Milton St,"25 Milton Street Nunawading, VIC 3131",https://www.eventbrite.com.au/e/the-art-of-play-interactive-community-art-experience-tickets-1314220020459?aff=ebdssbdestsearch,-37.8274822,145.1699299,
[English x Japanese Language Exchange] 【英語×日本語の言語交換】,2025-04-15,18:00,Diesel Bar & Eatery,"202 Little Lonsdale Street Melbourne, VIC 3000",https://www.eventbrite.com.au/e/english-x-japanese-language-exchange-tickets-1257681652679?aff=ebdssbdestsearch,-37.8107335,144.9634703,
Wine Tasting at ReWine (Brunswick East),2025-04-15,06:30,"ReWine, Lygon Street, Brunswick VIC, Australia","522 Lygon Street Brunswick, VIC 3056",https://www.eventbrite.com.au/e/wine-tasting-at-rewine-brunswick-east-tickets-1238480170529?aff=ebdssbdestsearch,-37.7623902,144.9736184,
Ben Sorensen's Trivia Experience,2025-04-15,19:00,Hofbräuhaus Melbourne,"18-28 Market Lane Melbourne, VIC 3000",https://www.eventbrite.com.au/e/ben-sorensens-trivia-experience-registration-1225783093229?aff=ebdssbdestsearch,-37.8116657,144.9692918,
Shake It Off - Your Weekly Dose of Physical & Emotional Fitness.,2025-04-15,18:30,Centre of You,"Upstairs, 217 Chapel St Prahran Melbourne, VIC 3181",https://www.eventbrite.com.au/e/shake-it-off-your-weekly-dose-of-physical-emotional-fitness-tickets-1313346277069?aff=ebdssbdestsearch,-37.8509316,144.9933031,
Mums and Bubs in Arms Creative Workshop Series,2025-04-15,10:00,Troppo Print Studio,"503 Sydney Road Coburg, VIC 3058",https://www.eventbrite.com.au/e/mums-and-bubs-in-arms-creative-workshop-series-tickets-1301632510879?aff=ebdssbdestsearch,-37.7410437,144.966314,
NDIS-Supported Journey into Australian Wildlife: Information Night,2025-04-15,18:00,Reptile Encounters Headquarters,"2 Leslie Court Burwood, VIC 3125",https://www.eventbrite.com.au/e/ndis-supported-journey-into-australian-wildlife-information-night-tickets-1200534483959?aff=ebdssbdestsearch,-37.858991,145.1120945,
North West Melb Launch Event ”Business growth through womanhood”,2025-04-15,10:00,Mamma Lina's Bar Cafe,"1057 Mount Alexander Road Essendon, VIC 3040",https://www.eventbrite.com.au/e/north-west-melb-launch-event-business-growth-through-womanhood-tickets-1292669492249?aff=ebdssbdestsearch,-37.7460977,144.9107018,
The Libertines,2025-04-15,12:00,Forum Melbourne,"150 Flinders St, Melbourne VIC 3000, Australia",https://premier.ticketek.com.au/shows/show.aspx?sh=LIBERTIN25,-37.8166268,144.9695761,
Vivek Mahbubani | Melbourne,2025-04-15,00:00,Arts Centre Melbourne,"100 St Kilda Rd, Southbank VIC 3004, Australia",https://www.facebook.com/events/477598078734786/,-37.8216405,144.9683143,Comedy
Hump Day Variety Hour with The Deserters,2025-04-16,00:00,The Merri Creek Tavern,"111 High St, Northcote VIC 3070, Australia",https://www.facebook.com/events/553948270973306/?event_time_id=553948287639971,-37.7794356,144.996838,Music
School Holiday Workshop - Kids in Space (Morning Session),2025-04-16,09:00,Paint for Fun,"252 Graham Street #Unit 1 Port Melbourne, VIC 3207",https://www.eventbrite.com.au/e/school-holiday-workshop-kids-in-space-morning-session-tickets-1248924770609?aff=ebdssbdestsearch,-37.8386895,144.9385483,
Heritage Hobsons Bay Trivia Night,2025-04-16,18:00,Royal Yacht Club of Victoria,"120 Nelson Place Williamstown, VIC 3016",https://www.eventbrite.com.au/e/heritage-hobsons-bay-trivia-night-tickets-1250739749259?aff=ebdssbdestsearch,-37.8626458,144.9063544,
MSA  InstaCook: Cooking Classes,2025-04-16,17:00,Wholefoods Restaurant,"Level 1, 21 Chancellors Walk Monash University, VIC 3800",https://www.eventbrite.com.au/e/msa-instacook-cooking-classes-registration-1246802422609?aff=ebdssbdestsearch,-37.9118892,145.1329277,
Melbourne Zoo Wildlife Photography Course-Wildlife Photography Course,2025-04-16,10:30,Melbourne Zoo,"Elliott Ave Parkville, VIC 3052",https://www.eventbrite.com.au/e/melbourne-zoo-wildlife-photography-course-wildlife-photography-course-tickets-1099458583219?aff=ebdssbdestsearch,-37.7884387,144.9493645,
Money: into and out of Africa,2025-04-16,17:30,International Chamber House,"Level 5 121 Exhibition Street Melbourne, VIC 3000",https://www.eventbrite.com.au/e/money-into-and-out-of-africa-tickets-1307734562279?aff=ebdssbdestsearch,-37.8126466,144.9703748,
Adult Intermediate Lyrical,2025-04-16,07:30,Dance Factory,"225 Swan Street Richmond, VIC 3121",https://www.eventbrite.com.au/e/adult-intermediate-lyrical-tickets-1261793220489?aff=ebdssbdestsearch,-37.8257354,144.9998261,
Sektion Sound Presents: Ewake Masterclass,2025-04-16,19:00,18 Dawson St,"18 Dawson Street Brunswick, VIC 3056",https://www.eventbrite.com.au/e/sektion-sound-presents-ewake-masterclass-tickets-1302827123999?aff=ebdssbdestsearch,-37.77119820000001,144.9590141,
The Listening Room - A New Kind of Open Mic,2025-04-16,18:45,Nighthawks,"136 Johnston Street Collingwood, VIC 3066",https://www.eventbrite.com.au/e/the-listening-room-a-new-kind-of-open-mic-tickets-1261682950669?aff=ebdssbdestsearch,-37.7993105,144.989544,
FITZROY SPEED DATING FOR AGES 25-39,2025-04-16,19:00,Polly Bar,"401 Brunswick Street Melbourne, VIC 3065",https://www.eventbrite.com.au/e/fitzroy-speed-dating-for-ages-25-39-tickets-1204315342609?aff=ebdssbdestsearch,-37.7950784,144.9786736,
DO MASTAANE – A Comedy Special by Abhishek Upmanyu & Devesh Dixit,2025-04-16,07:30,The Comic's Lounge,"26 Errol Street #1 North Melbourne, VIC 3051",https://www.eventbrite.com.au/e/do-mastaane-a-comedy-special-by-abhishek-upmanyu-devesh-dixit-tickets-1234533144869?aff=ebdssbdestsearch,-37.8045082,144.9495239,
Golf Square - Social League,2025-04-16,18:30,8 Annastasia Way,"8 Annastasia Way Sunshine North, VIC 3020",https://www.eventbrite.com.au/e/golf-square-social-league-tickets-1301670494489?aff=ebdssbdestsearch,-37.7746424,144.8278373,
MUST Trivia! Night,2025-04-16,19:00,The MUST Space,"Campus Centre 21 Chancellors Walk Monash University, Clayton, VIC 3800",https://www.eventbrite.com.au/e/must-trivia-night-tickets-1315675804749?aff=ebdssbdestsearch,-37.911985,145.1329755,
Private Hand Building Workshop with Glaze and Firing,2025-04-16,16:00,"Heer Pottery - unit 3/29-31 Clarice Rd, Box Hill South VIC","29-31 Clarice Road #unit 3 Box Hill South, VIC 3128",https://www.eventbrite.com.au/e/private-hand-building-workshop-with-glaze-and-firing-tickets-1059231723599?aff=ebdssbdestsearch,-37.8333911,145.1339829,
Energise this Easter - Wellbeing and Yoga workshops for children aged 4 -7,2025-04-16,10:00,Yoga Freedom Studio,"Vincent Lane Avondale Heights, VIC 3034",https://www.eventbrite.com.au/e/energise-this-easter-wellbeing-and-yoga-workshops-for-children-aged-4-7-tickets-1305686977899?aff=ebdssbdestsearch,-37.7694691,144.8645113,
Create Your Own Book Workshops,2025-04-16,10:15,State Library Victoria,"328 Swanston St Pauline Gandel Children's Quarter Melbourne, VIC 3000",https://www.eventbrite.com.au/e/create-your-own-book-workshops-tickets-1295404041359?aff=ebdssbdestsearch,-37.8097472,144.9654858,
4 Week Illustration Course by a Mural Artist,2025-04-16,19:30,Artful Yoga Gallery,"1 Vale Street St Kilda, VIC 3182",https://www.eventbrite.com.au/e/4-week-illustration-course-by-a-mural-artist-tickets-1301640464669?aff=ebdssbdestsearch,-37.8661713,144.9817611,
2 Minutes to Kill,2025-04-16,08:30,Goff's Comedy,"215 Swan Street Richmond, VIC 3121",https://www.eventbrite.com.au/e/2-minutes-to-kill-tickets-1210140074539?aff=ebdssbdestsearch,-37.8256242,144.9994168,
Upcycled Coaster Workshop,2025-04-16,10:00,"Forest Hill Chase Community Space (Level 2, opposite Aus Post)","270 Canterbury Road Forest Hill, VIC 3131",https://www.eventbrite.com.au/e/upcycled-coaster-workshop-tickets-1290589531029?aff=ebdssbdestsearch,-37.8355663,145.164834,
School Holiday Fun: 1 Hr Easter Craft Activity for Kids,2025-04-16,11:00,Timmins Court,"Timmins Court Mill Park, VIC 3082",https://www.eventbrite.com.au/e/school-holiday-fun-1-hr-easter-craft-activity-for-kids-tickets-1313435604249?aff=ebdssbdestsearch,-37.6583786,145.0474495,
Maton Guitars factory Tour,2025-04-16,10:00,6 Clarice Rd,"6 Clarice Road Box Hill South, VIC 3128",https://www.eventbrite.com.au/e/maton-guitars-factory-tour-tickets-1280363364289?aff=ebdssbdestsearch,-37.8356982,145.1335762,
Argentine Tango Dance Class,2025-04-16,02:15,Nona Lee Sports Centre,"103 Tin Alley #Building Parkville, VIC 3010",https://www.eventbrite.com.au/e/argentine-tango-dance-class-tickets-1297716297379?aff=ebdssbdestsearch,-37.79527789999999,144.9626463,
Energise this Easter - Wellbeing and Yoga workshops for tweens  8 - 13 yrs,2025-04-16,13:00,Yoga Freedom Studio,"Vincent Lane Avondale Heights, VIC 3034",https://www.eventbrite.com.au/e/energise-this-easter-wellbeing-and-yoga-workshops-for-tweens-8-13-yrs-tickets-1305696827359?aff=ebdssbdestsearch,-37.7694691,144.8645113,
Wonderful women’s pilates,2025-04-16,11:00,18 Patrick St,"18 Patrick Street Campbellfield, VIC 3044",https://www.eventbrite.com.au/e/wonderful-womens-pilates-tickets-1236532525069?aff=ebdssbdestsearch,-37.6697126,144.9722713,
Beginner Ballroom Dance Class,2025-04-16,10:00,Nona Lee Sports Centre,"103 Tin Alley #Building Parkville, VIC 3010",https://www.eventbrite.com.au/e/beginner-ballroom-dance-class-tickets-1297699457009?aff=ebdssbdestsearch,-37.79527789999999,144.9626463,
$10 for 10 at 10:10pm,2025-04-16,10:10,Goff's Comedy,"215 Swan Street Richmond, VIC 3121",https://www.eventbrite.com.au/e/10-for-10-at-1010pm-tickets-1210147256019?aff=ebdssbdestsearch,-37.8256242,144.9994168,
BNI Yarra Business Partners Breakfast & Networking Event,2025-04-16,06:45,Au79,"29 Nicholson Street #27 Abbotsford, VIC 3067",https://www.eventbrite.com.au/e/bni-yarra-business-partners-breakfast-networking-event-tickets-1095930340149?aff=ebdssbdestsearch,-37.808833,144.995982,
Relaxation sound healing with gentle head massage,2025-04-16,07:15,SoulPod Health & Healing,"14 Stanley Street Melbourne, VIC 3121",https://www.eventbrite.com.au/e/relaxation-sound-healing-with-gentle-head-massage-tickets-1300251991709?aff=ebdssbdestsearch,-37.8228766,144.9947237,
Blackpill.,2025-04-16,19:30,TW Explosives Factory,"67 Inkerman Street St Kilda, VIC 3182",https://www.eventbrite.com.au/e/blackpill-tickets-1110796214379?aff=ebdssbdestsearch,-37.8646651,144.9842743,
Toto,2025-04-16,12:00,John Cain Arena,"35 Olympic Blvd, Melbourne VIC 3000, Australia",https://premier.ticketek.com.au/shows/show.aspx?sh=TOTO25,-37.8227725,144.9819687,
Easter Art Jam Session - 25,2025-04-16,17:30,The Corner Studio,"582 Barkly Street West Footscray, VIC 3012",https://www.eventbrite.com.au/e/easter-art-jam-session-25-tickets-1311301099889?aff=ebdssbdestsearch,-37.7971301,144.8768395,
Private Hand Building Workshop with Kiln Firing,2025-04-16,16:00,"Heer Pottery - unit 3/29-31 Clarice Rd, Box Hill South VIC","29-31 Clarice Road #unit 3 Box Hill South, VIC 3128",https://www.eventbrite.com.au/e/private-hand-building-workshop-with-kiln-firing-tickets-1059244391489?aff=ebdssbdestsearch,-37.8333911,145.1339829,
MWAA,2025-04-16,20:30,Bar 303,"303 High St, Northcote VIC 3070, Australia",https://www.facebook.com/events/967435655601759/,-37.7713296,144.99828116650363,Music
Julien Wilson / Kyrie Anderson / Sam Anning / Stephen Magnusson @ Bar 303,2025-04-16,20:00,Bar 303,"303 High St, Northcote VIC 3070, Australia",https://www.facebook.com/events/1608784309776889/,-37.7713296,144.99828116650363,Music
Open Mic & Jam @ BAR OUSSOU! ,2025-04-16,00:00,Bar Oussou,"653 Sydney Rd, Brunswick VIC 3056, Australia",https://www.facebook.com/events/530685326228412/,-37.7618155,144.9628753,Music
OPEN MIC,2025-04-16,00:00,Mamma Chen's,"42A Albert St, Footscray VIC 3011, Australia",https://www.facebook.com/events/622431437290021/?event_time_id=622431447290020,-37.8047552,144.89727240000002,Music
Claire Chase – Sex Magic,2025-04-16,00:00,Melbourne Recital Centre,"31 Sturt St, Southbank VIC 3006, Australia",https://www.facebook.com/events/581621174642328/,-37.82408485,144.96758763141432,Music
BJ The Chicago Kid | Northcote Theatre,2025-04-16,19:00,Northcote Theatre,"216 High St, Northcote VIC 3070, Australia",https://www.facebook.com/events/1063980875268595/,-37.7737068,144.9982706,Music
MID-WEEK CRISIS AT THE LAST CHANCE - W/ HEMATEMESIS + VIOLET DREAD,2025-04-16,19:00,The Last Chance,"238 Victoria St, Melbourne VIC 3000, Australia",https://www.facebook.com/events/1333531907764036/,-37.8059962,144.9585654,
"'I Love You, Man' Film Screening",2025-04-16,20:00,Northcote Social Club,"301 High St, Northcote VIC 3070, Australia",https://www.facebook.com/events/1161149365412605/,-37.771471,144.998414,"Cinema
Is this conversation helpful so far?"
Frequency,2025-04-16,00:00,Arts Centre Melbourne,"100 St Kilda Rd, Southbank VIC 3004, Australia",https://www.facebook.com/events/1263910184912897/,-37.8216405,144.9683143,Music
Pollyman: Appearing At The Bergy Bandroom (with special guests: Lucy Lorenne and Angus Legg),2025-04-16,19:30,Bergy Bandroom,"64 Sydney Rd, Brunswick VIC 3056, Australia",https://www.facebook.com/events/527376233757544/,-37.776327,144.9607158,Music
The Native Cats (Nipaluna/Hobart) play Shotkickers,2025-04-16,07:30,Shotkickers,"744 High St, Thornbury VIC 3071, Australia",https://www.facebook.com/events/1046581110842271/,-37.75592655,145.0013923,Music
MELLOWDÍAS THUMP,2025-04-16,00:00,Wax Music Lounge,"250 Flinders St, Melbourne VIC 3000, Australia",https://www.facebook.com/events/1124371722195700/?event_time_id=1124371878862351,-37.8176298,144.9661635,Music
Riot Underage • April 16th 2025,2025-04-16,17:00,Chasers Venue,"386 Chapel Street South Yarra, VIC 3141",https://www.eventbrite.com.au/e/riot-underage-april-16th-2025-tickets-1217467491039?aff=ebdssbdestsearch,-37.8459028,144.9947039,
OMSB Evening Experience 16th April 2025  ** VENUE CHANGED**,2025-04-16,18:30,Smith St Bistrot,"300 Smith Street Collingwood, VIC 3066",https://www.eventbrite.com.au/e/omsb-evening-experience-16th-april-2025-venue-changed-tickets-1248100384849?aff=ebdssbdestsearch,-37.8002354,144.9842903,
Comedy Night ft Peter Helliar and Peter Rowsthorn hosted by Kirsty Webeck!,2025-04-16,19:00,Welcome to Brunswick,"408 Sydney Road Brunswick, VIC 3056",https://www.eventbrite.com.au/e/comedy-night-ft-peter-helliar-and-peter-rowsthorn-hosted-by-kirsty-webeck-tickets-1279037588859?aff=ebdssbdestsearch,-37.7684338,144.9621623,
Band Matchmaking ~ Presented by RADIO MONASH,2025-04-16,19:00,Sir John's Bar,"Level, 1 21 Chancellors Walk Campus Centre Clayton, VIC 3800",https://www.eventbrite.com.au/e/band-matchmaking-presented-by-radio-monash-tickets-1316949213549?aff=ebdssbdestsearch,-37.9118892,145.1329277,
AI Adoption Stories - From Australian Red Cross Lifeblood & Transurban,2025-04-16,18:00,Kathleen Syme Library and Community Centre,"251 Faraday Street Carlton, VIC 3053",https://www.eventbrite.com.au/e/ai-adoption-stories-from-australian-red-cross-lifeblood-transurban-tickets-1302441771399?aff=ebdssbdestsearch,-37.7986481,144.9652272,
Performance & Songwriting| MELB | School Holiday Workshop,2025-04-16,10:00,Australian Institute of Music,"120 King Street Melbourne, VIC 3000",https://www.eventbrite.com.au/e/performance-songwriting-melb-school-holiday-workshop-tickets-1227133412069?aff=ebdssbdestsearch,-37.81714789999999,144.9564705,
AI Adoption Stories - From Australian Red Cross Lifeblood,2025-04-16,18:00,Kathleen Syme Library and Community Centre,"251 Faraday Street Carlton, VIC 3053",https://www.eventbrite.com.au/e/ai-adoption-stories-from-australian-red-cross-lifeblood-tickets-1302441771399?aff=ebdssbdestsearch,-37.7986481,144.9652272,
Mastering Health Communication with Bianca Nogrady,2025-04-16,08:45,WeWork,"120 Spencer Street Level 22 Melbourne, VIC 3000",https://www.eventbrite.com.au/e/mastering-health-communication-with-bianca-nogrady-tickets-1285481793649?aff=ebdssbdestsearch,-37.8182394,144.9542081,
Bachata ConeXion 'Wednesdays',2025-04-16,18:30,160 Lygon St,"160 Lygon Street Carlton, VIC 3053",https://www.eventbrite.com.au/e/bachata-conexion-wednesdays-tickets-945471108537?aff=ebdssbdestsearch,-37.8034383,144.9667231,
The Odd Couple,2025-04-16,07:15,Goff's Comedy,"215 Swan Street Richmond, VIC 3121",https://www.eventbrite.com.au/e/the-odd-couple-tickets-1126456464609?aff=ebdssbdestsearch,-37.8256242,144.9994168,
Endgame Academy 3 Day Soccer Clinic Balwyn,2025-04-16,10:00,Macleay Park,"189 Belmore Road Balwyn North, VIC 3104",https://www.eventbrite.com.au/e/endgame-academy-3-day-soccer-clinic-balwyn-tickets-1309302792899?aff=ebdssbdestsearch,-37.8023888,145.0765814,
Fresh Networking Doncaster - Guest Registration,2025-04-17,07:30,Salted Caramel Cafe,"6 Macedon Road Templestowe Lower, VIC 3107",https://www.eventbrite.com.au/e/fresh-networking-doncaster-guest-registration-tickets-803814529897?aff=ebdssbdestsearch,-37.7728879,145.1127533,
MELBOURNE EMO EASTER GOOD FRIDAY EVE  THURS 17TH APRIL 2025,2025-04-17,20:00,Deluxe Bar,"595 Mount Alexander Road Moonee Ponds, VIC 3039",https://www.eventbrite.com.au/e/melbourne-emo-easter-good-friday-eve-thurs-17th-april-2025-tickets-1287233944379?aff=ebdssbdestsearch,-37.768313,144.925046,
"Badass Women Networking Night- April 17th, LOEV Moorabbin",2025-04-17,18:30,LOEV,"77 Keys Road Moorabbin, VIC 3189",https://www.eventbrite.com.au/e/badass-women-networking-night-april-17th-loev-moorabbin-tickets-1291088192539?aff=ebdssbdestsearch,-37.9484271,145.067727,
Brava  Women Networking IN PERSON April 17th 2025 - Chadstone,2025-04-17,10:00,LXD Business Centre,"1341 Dandenong Road #Tower 1,Ground Level Chadstone, VIC 3148",https://www.eventbrite.com.au/e/brava-women-networking-in-person-april-17th-2025-chadstone-tickets-1277799545839?aff=ebdssbdestsearch,-37.8859034,145.085521,
SUNDAYLICIOUS RnB | EASTER LONG WEEKEND | THURSDAY EVE APRIL 17 | 9pm - 3am,2025-04-17,21:00,La Di Da,"577 Little Bourke Street Melbourne, VIC 3000",https://www.eventbrite.com.au/e/sundaylicious-rnb-easter-long-weekend-thursday-eve-april-17-9pm-3am-tickets-1080058186109?aff=ebdssbdestsearch,-37.8154693,144.9556119,
Ruby Gill’s Album Launch (Naarm) with Hannah Cameron,2025-04-17,19:00,Northcote Social Club,"301 High St, Northcote VIC 3070, Australia",https://www.facebook.com/events/1906462603220062/,-37.771471,144.998414,Music
SUCCULENT THURSDAYS,2025-04-17,00:00,Cactus Room,"614 High St, Thornbury VIC 3071, Australia",https://www.facebook.com/events/1396655064837679/?event_time_id=1396655068171012,-37.76125825,145.00041662186553,Music
FUNGAS @ LAST CHANCE (NAARM),2025-04-17,19:00,The Last Chance,"238 Victoria St, Melbourne VIC 3000, Australia",https://www.facebook.com/events/617596277732789/,-37.8059962,144.9585654,Music
LOUIE & The PARTY BOYZ,2025-04-17,00:00,Musicland Melbourne,"1359 Sydney Rd, Fawkner VIC 3060, Australia",https://www.facebook.com/events/1705687117022095/,-37.6916774,144.9585701581541,Music
(TWO TABLES LEFT) NORMIE ROWE & The Playboys | ONLY MELBOURNE Dinner & Show,2025-04-17,00:00,arcobar heatherton,"8 Arco Ln, Heatherton VIC 3202, Australia",https://www.facebook.com/events/594219616645254/,-37.94673685,145.07837928457485,Music
The Seven Ups - Thursdays in April @ Shotkickers,2025-04-17,00:00,Shotkickers,"744 High St, Thornbury VIC 3071, Australia",https://www.facebook.com/events/651992823986157/,-37.75592655,145.0013923,Music
"You, Me & RnB at The George On Collins",2025-04-17,21:30,The George on Collins,"162-168 Collins Street Melbourne, VIC 3000",https://www.eventbrite.com.au/e/you-me-rnb-at-the-george-on-collins-tickets-1319674324429?aff=ebdssbdestsearch,-37.8144752,144.9678467,
TATTOOROSE LIVE!! EASTER BASH,2025-04-17,00:00,Mr Boogie Man Bar,"160 Hoddle St, Abbotsford VIC 3067, Australia",https://www.facebook.com/events/981120313983787/,-37.80245,144.99295304614787,Music
LUME /w ANNWEN ROBERTS & LUNIC @ Bar 303,2025-04-17,20:00,Bar 303,"303 High St, Northcote VIC 3070, Australia",https://www.facebook.com/events/3658131944478318/,-37.7713296,144.99828116650363,Music
MIRROR CLIPPERS TULLAMARINE SINGLE LAUNCH - OLD BAR - GOOD FRIDAY EVE  - THURSDAY 17/04/2025 ,2025-04-17,00:00,The Old Bar,"74-76 Johnston St, Fitzroy VIC 3065, Australia",https://www.facebook.com/events/1355026822518234/,-37.79833,144.97711,Music
Soft Cell,2025-04-17,20:00,Palais Theatre,"Lower Esplanade, St Kilda VIC 3182, Australia",https://www.facebook.com/events/1064905761731967/,-37.86708671,144.97599656199426,Music
SOFT CELL // Melbourne // Non Stop Erotic Cabaret // Palais Theatre // AU 2025 // LIC AA,2025-04-17,19:00,Palais Theatre,"Lower Esplanade, St Kilda VIC 3182, Australia",https://www.facebook.com/events/401047429680458/,-37.86708671,144.97599656199426,Music
KID CANDY DUO - presents FREE BRUCE SPRINGSTEEN'S TUNNEL OF LOVE REVUE 2PM THURS 17TH APRIL  ,2025-04-17,00:00,Kindred Bandroom,"3 Harris St, Footscray VIC 3011, Australia",https://www.facebook.com/events/1846687245887793/,-37.8119001,144.9008247,Music
Norman Jay (MBE) Pres. Good Times Melbourne,2025-04-17,00:00,The Night Cat,"137-141 Johnston St, Fitzroy VIC 3065, Australia",https://www.facebook.com/events/1822385528561497/,-37.7982971,144.978128,Music
Flow Motion ~ Public Holiday Eve,2025-04-17,19:00,Kindred Bandroom,"3 Harris St, Footscray VIC 3011, Australia",https://www.facebook.com/events/1005086424538269/,-37.8119001,144.9008247,Music
Malibu Spacey Live at Merri Creek Tavern,2025-04-17,20:00,The Merri Creek Tavern,"111 High St, Northcote VIC 3070, Australia",https://www.facebook.com/events/1838876310221282/,-37.7794356,144.996838,Music
"The Great Divides & Gavin! Retreat beergarden, April 17th - Free!!",2025-04-17,18:00,Retreat Hotel,"Level 1/280 Sydney Rd, Brunswick VIC 3056, Australia",https://www.facebook.com/events/1075438544413130/,-37.7711487,144.9615949,Music
Open Decks @ Bar Oussou,2025-04-17,00:00,Bar Oussou,"653 Sydney Rd, Brunswick VIC 3056, Australia",https://www.facebook.com/events/1135129411697256/,-37.7618155,144.9628753,Music
Closed 17th April,2025-04-17,00:00,Hume Blues Club Inc,"27 Ballantyne St, Thornbury VIC 3071, Australia",https://www.facebook.com/events/3916001931999496/,-37.7588241,144.9985126,Unknown
Lachlan McGargill’s Melbourne Fusion Band @ BAR OUSSOU!,2025-04-17,20:00,Bar Oussou,"653 Sydney Rd, Brunswick VIC 3056, Australia",https://www.facebook.com/events/2365618110541395/,-37.7618155,144.9628753,Music
14 Comics 1 Survivor - The Gong Comedy Show,2025-04-17,09:15,Roxy's Bar/Food,"2 Alfred Place South Melbourne, VIC 3205",https://www.eventbrite.com/e/14-comics-1-survivor-the-gong-comedy-show-tickets-1311395432039?aff=ebdssbdestsearch,-37.8314108,144.9592778,
Tromba Latin Fiesta Easter Thursday - Bad Bunny Wonderland,2025-04-17,21:00,Ms Collins,"425 Collins Street Melbourne, VIC 3000",https://www.eventbrite.com.au/e/tromba-latin-fiesta-easter-thursday-bad-bunny-wonderland-tickets-1302956210099?aff=ebdssbdestsearch,-37.8174565,144.9606326,
Private Wheel Throwing Workshop with Kiln Firing,2025-04-17,10:00,"Heer Pottery - unit 3/29-31 Clarice Rd, Box Hill South VIC","29-31 Clarice Road #unit 3 Box Hill South, VIC 3128",https://www.eventbrite.com.au/e/private-wheel-throwing-workshop-with-kiln-firing-tickets-1057774515049?aff=ebdssbdestsearch,-37.8333911,145.1339829,
Mid Semester PJ Party,2025-04-17,21:00,Love Machine,"228a Malvern Rd Prahran, VIC 3181",https://www.eventbrite.com.au/e/mid-semester-pj-party-tickets-1295311133469?aff=ebdssbdestsearch,-37.8471331,144.9948088,
TROMBA BAD BUNNY WONDERLAND -EASTER THURS @ MS COLLINS [VIP BOOTH PACKAGES],2025-04-17,22:00,Ms Collins,"425 Collins Street Melbourne, VIC 3000",https://www.eventbrite.com.au/e/tromba-bad-bunny-wonderland-easter-thurs-ms-collins-vip-booth-packages-tickets-1302997453459?aff=ebdssbdestsearch,-37.8174565,144.9606326,
30-45 YO | April 17th  | Serves & Sparks:  A Pickleball Social for Singles,2025-04-17,18:00,PicklePlay Indoor Pickleball,"1 South Drive Bentleigh East, VIC 3165",https://www.eventbrite.com.au/e/30-45-yo-april-17th-serves-sparks-a-pickleball-social-for-singles-tickets-1313538481959?aff=ebdssbdestsearch,-37.9106715,145.0613664,
KAP April Series: Life Force Activation (Kundalini),2025-04-17,19:00,"SoulPod Health & Healing, Stanley Street, Richmond VIC, Australia","14 Stanley Street Richmond, VIC 3121",https://www.eventbrite.com.au/e/kap-april-series-life-force-activation-kundalini-tickets-1311242514659?aff=ebdssbdestsearch,-37.8228766,144.9947237,
Let It Breathe: The Art of Decanting,2025-04-17,18:00,The Vincent Wine Shop,"111 Victoria Avenue Albert Park, VIC 3206",https://www.eventbrite.com/e/let-it-breathe-the-art-of-decanting-tickets-1315959944619?aff=ebdssbdestsearch,-37.8450308,144.9508355,
KAP Go Deeper  Melbourne - Life Force Activation (Kundalini),2025-04-17,19:00,"SoulPod Health & Healing, Stanley Street, Richmond VIC, Australia","14 Stanley Street Richmond, VIC 3121",https://www.eventbrite.com.au/e/kap-go-deeper-melbourne-life-force-activation-kundalini-tickets-1306174265389?aff=ebdssbdestsearch,-37.8228766,144.9947237,
Latin Obsession - Bachata & Salsa at The Space Thursday17th April,2025-04-17,19:00,The Space Dance & Arts Centre,"318 Chapel Street Prahran, VIC 3181",https://www.eventbrite.com.au/e/latin-obsession-bachata-salsa-at-the-space-thursday17th-april-tickets-1317037026199?aff=ebdssbdestsearch,-37.8476748,144.9942004,
The Machine Stops,2025-04-17,19:30,Theatre Works,"Saint Leonards Avenue St Kilda, VIC 3182",https://www.eventbrite.com.au/e/the-machine-stops-tickets-1110782302769?aff=ebdssbdestsearch,-37.8638328,144.9768976,
Buttered Loaf  at The Lomond Hotel.,2025-04-17,20:00,The Lomond Hotel,"225 Nicholson Street Brunswick East, VIC 3057",https://www.eventbrite.com.au/e/buttered-loaf-at-the-lomond-hotel-tickets-1306759515889?aff=ebdssbdestsearch,-37.7670861,144.9800057,
Mid Semester Game Jam (2025 S1),2025-04-17,18:00,Sidney Myer Asia Centre: Building 158,"Melbourne University - Stop 1 Parkville, VIC 3010",https://www.eventbrite.com/e/mid-semester-game-jam-2025-s1-tickets-1314436608279?aff=ebdssbdestsearch,-37.7999026,144.9637708,
ICONIC THURSDAYS - University Special,2025-04-17,21:00,8 Jackson St,"8 Jackson Street Toorak, VIC 3142",https://www.eventbrite.com/e/iconic-thursdays-university-special-tickets-1277390773189?aff=ebdssbdestsearch,-37.8401524,145.0079428,
School Holiday Workshop - Underwater Wonders (Morning Session),2025-04-17,09:00,Paint for Fun,"252 Graham Street #Unit 1 Port Melbourne, VIC 3207",https://www.eventbrite.com.au/e/school-holiday-workshop-underwater-wonders-morning-session-tickets-1248932724399?aff=ebdssbdestsearch,-37.8386895,144.9385483,
The Emerson x Super Good Present: Good Friday Eve,2025-04-17,21:00,The Emerson Rooftop Bar and Club,"141-145 Commercial Road South Yarra, VIC 3141",https://www.eventbrite.com.au/e/the-emerson-x-super-good-present-good-friday-eve-tickets-1311389684849?aff=ebdssbdestsearch,-37.8462997,144.9911964,
Gigi Rooftop - Farewell Summer Closing Party,2025-04-17,18:00,Gigi Rooftop,"917 High Street Level 2 Thornbury, VIC 3071",https://www.eventbrite.com.au/e/gigi-rooftop-farewell-summer-closing-party-tickets-1295282106649?aff=ebdssbdestsearch,-37.752655,145.001404,
Euro After Dark 2025,2025-04-17,06:30,Louey's Bar & Kitchen,"11 The Esplanade St Kilda, VIC 3182",https://www.eventbrite.com.au/e/euro-after-dark-2025-tickets-1311743463009?aff=ebdssbdestsearch,-37.8641604,144.9730092,
daezy EP LAUNCH,2025-04-17,19:00,The Workers Club,"51 Brunswick St, Fitzroy VIC 3065, Australia",https://www.facebook.com/events/973146771618326/,-37.8055776,144.9769450659087,Music
MASS Trivia Night 2025,2025-04-17,18:00,The Promenade Docklands,"78 Newquay Promenade #Suite 2, Level 1 Docklands, VIC 3008",https://www.eventbrite.com.au/e/mass-trivia-night-2025-tickets-1305689565639?aff=ebdssbdestsearch,-37.8145014,144.9392306,
LUX VIP MELB : BRAND PARTNER : Cinder Private Dining,2025-04-17,06:30,Cinder,"18 Brennand Street Fitzroy North, VIC 3068",https://www.eventbrite.com.au/e/lux-vip-melb-brand-partner-cinder-private-dining-tickets-1271770552959?aff=ebdssbdestsearch,-37.7850103,144.9945336,
MAMI & FRIENDS - GOOD FRIDAY EVE,2025-04-17,22:00,199 Commercial Rd,"199 Commercial Road South Yarra, VIC 3141",https://www.eventbrite.com.au/e/mami-friends-good-friday-eve-tickets-1301708959539?aff=ebdssbdestsearch,-37.8465589,144.993086,
Fresh Networking  Fitzroy - Guest Registration,2025-04-17,12:30,Bon Ap' Petit Bistro,"193 Brunswick Street Fitzroy, VIC 3065",https://www.eventbrite.com.au/e/fresh-networking-fitzroy-guest-registration-tickets-1232410134889?aff=ebdssbdestsearch,-37.801728,144.9776947,
Bakery Hill Distillery Tour & Tasting,2025-04-17,18:00,411 Macaulay Rd,"411 Macaulay Road Kensington, VIC 3031",https://www.eventbrite.com.au/e/bakery-hill-distillery-tour-tasting-tickets-800417238507?aff=ebdssbdestsearch,-37.794873,144.9330843,
Conscious Connection | House Party (ages 20-40),2025-04-17,19:00,Northside Wines,"543-545 High Street Northcote, VIC 3070",https://www.eventbrite.com.au/e/conscious-connection-house-party-ages-20-40-tickets-1289124067789?aff=ebdssbdestsearch,-37.764227,144.9994439,
"Freak Out, Billie Jean.. It's Easter Thursday!!! xo",2025-04-17,20:00,Club Retro,"383 Lonsdale Street Melbourne, VIC 3000",https://www.eventbrite.com.au/e/freak-out-billie-jean-its-easter-thursday-xo-tickets-1300289293279?aff=ebdssbdestsearch,-37.8128025,144.9611855,
Career Compass 2025,2025-04-17,16:00,"342 Swanston Street Melbourne, VIC 3000","348 Swanston Street #Building 16 336 Melbourne, VIC 3000",https://www.eventbrite.com.au/e/career-compass-2025-tickets-1281842699019?aff=ebdssbdestsearch,-37.8091922,144.9639727,
Novel presents The Trip (UK),2025-04-17,22:00,Sub Club Melbourne,"Flinders Court Melbourne, VIC 3000",https://www.eventbrite.com.au/e/novel-presents-the-trip-uk-tickets-1278965513279?aff=ebdssbdestsearch,-37.8179755,144.9644539,
Coffee Chats with ESSA,2025-04-17,10:30,Secret Garden Eatery,"13 College Walk Clayton, VIC 3168",https://www.eventbrite.com.au/e/coffee-chats-with-essa-tickets-1309542830859?aff=ebdssbdestsearch,-37.9098104,145.1321036,
Good Friday Eve Rooftop Party,2025-04-17,20:00,onesixone rooftop,"161 High St Prahran, VIC 3181",https://www.eventbrite.com.au/e/good-friday-eve-rooftop-party-tickets-1303700777119?aff=ebdssbdestsearch,-37.85173229999999,144.9936589,
候场喜剧4月17日星期四墨尔本喜剧节特别场-LGPTQ+,2025-04-17,19:30,Library at The Dock,"107 Victoria Harbour Promenade Docklands, VIC 3008",https://www.eventbrite.com/e/417-lgptq-tickets-1319601065309?aff=ebdssbdestsearch,-37.8200128,144.9404861,
"Bollywood Club - GULABO at Spice Market, Melbourne",2025-04-17,22:00,Spice Market,"Beaney Lane Melbourne, VIC 3000",https://www.eventbrite.com.au/e/bollywood-club-gulabo-at-spice-market-melbourne-tickets-1292422483439?aff=ebdssbdestsearch,-37.8150914,144.9692403,
DAYDANSE @ Revolver (Good Friday),2025-04-18,12:00,Revolver Upstairs,"229 Chapel Street Prahran, VIC 3181",https://www.eventbrite.com.au/e/daydanse-revolver-good-friday-tickets-1309517495079?aff=ebdssbdestsearch,-37.8504915,144.9933589,
SONDA TOUR: MELBOURNE,2025-04-18,22:00,The Emerson Rooftop Bar and Club,"141-145 Commercial Road South Yarra, VIC 3141",https://www.eventbrite.com.au/e/sonda-tour-melbourne-tickets-1266927106079?aff=ebdssbdestsearch,-37.8462997,144.9911964,
BRUNCHBEATS 3.0 - AFROHOUSE X UKG,2025-04-18,18:00,LOLA St Kilda,"60 Fitzroy Street St Kilda, VIC 3182",https://www.eventbrite.com.au/e/brunchbeats-30-afrohouse-x-ukg-tickets-1297631995229?aff=ebdssbdestsearch,-37.85938429999999,144.9774614,
"Bollywood Club presents Bollywood Rave at Crown, Melbourne",2025-04-18,21:30,Crown Level 3 Nightclub,"8 Whiteman Street Southbank, VIC 3006",https://www.eventbrite.com.au/e/bollywood-club-presents-bollywood-rave-at-crown-melbourne-tickets-1295659344979?aff=ebdssbdestsearch,-37.82343669999999,144.9580861,
Planted 2025,2025-04-18,10:30,13 Link Ct,"13 Link Court Brooklyn, VIC 3012",https://www.eventbrite.com.au/e/planted-2025-tickets-1254029599289?aff=ebdssbdestsearch,-37.8226143,144.8570075,
RELOAD,2025-04-18,22:00,Laundry Bar,"50 Johnston Street Fitzroy, VIC 3065",https://www.eventbrite.com/e/reload-tickets-1303814096059?aff=ebdssbdestsearch,-37.79831,144.976368,
Victony Live In Melbourne,2025-04-18,16:00,The Third Day,"290 Macaulay Road North Melbourne, VIC 3051",https://www.eventbrite.com.au/e/victony-live-in-melbourne-tickets-1252772388939?aff=ebdssbdestsearch,-37.7946786,144.9367079,
Y2SLAY - 2000's bangers party at Yah's! FRI APRIL 18,2025-04-18,21:00,Yah Yahs,"99 Smith Street Fitzroy, VIC 3065",https://www.eventbrite.com.au/e/y2slay-2000s-bangers-party-at-yahs-fri-april-18-tickets-1318353574029?aff=ebdssbdestsearch,-37.8058635,144.9829641,
Flamingo Club,2025-04-18,21:00,Pawn & Co,"177 Greville Street Prahran, VIC 3181",https://www.eventbrite.com.au/e/flamingo-club-tickets-934233155517?aff=ebdssbdestsearch,-37.8493509,144.9926303,
Startup Pitch Event Melbourne,2025-04-18,18:00,215 Queen's Restaurant and Bar Melbourne,"215 Queen Street Melbourne, VIC 3000",https://www.eventbrite.com/e/startup-pitch-event-melbourne-tickets-1249010296419?aff=ebdssbdestsearch,-37.8137882,144.9598785,
"BOLLYWOOD CLUB Presents Friday Night at Crown, Melbourne",2025-04-18,21:30,Crown Melbourne,"8 Whiteman Street Southbank, VIC 3006",https://www.eventbrite.com.au/e/bollywood-club-presents-friday-night-at-crown-melbourne-tickets-999153042647?aff=ebdssbdestsearch,-37.82343669999999,144.9580861,
"Melbourne Language Exchange | Make Friends, Learn Languages & Culture",2025-04-18,17:30,215 Queen's Restaurant and Bar Melbourne,"215 Queen Street Melbourne, VIC 3000",https://www.eventbrite.com.au/e/melbourne-language-exchange-make-friends-learn-languages-culture-tickets-1059091584439?aff=ebdssbdestsearch,-37.8137882,144.9598785,
Tee30Golf Dashing Dads Breakfast,2025-04-18,06:00,Oakleigh Golf Course,"2 Park Road Chadstone, VIC 3166",https://www.eventbrite.com.au/e/tee30golf-dashing-dads-breakfast-tickets-1316105018539?aff=ebdssbdestsearch,-37.8913837,145.0999988,
Unladylike,2025-04-18,08:30,Goff's Comedy,"215 Swan Street Richmond, VIC 3121",https://www.eventbrite.com.au/e/unladylike-tickets-1227149791059?aff=ebdssbdestsearch,-37.8256242,144.9994168,
Batmania Pub Crawl Melbourne!,2025-04-18,06:30,HOWM Central Melbourne,"16 Degraves Street Melbourne, VIC 3000",https://www.eventbrite.com.au/e/batmania-pub-crawl-melbourne-tickets-1122711844349?aff=ebdssbdestsearch,-37.8175918,144.9660483,
Kids Soiree at Kids Day Out 2025,2025-04-18,10:00,Melbourne Convention and Exhibition Centre (MCEC),"1 Convention Centre Place South Wharf, VIC 3006",https://www.eventbrite.com.au/e/kids-soiree-at-kids-day-out-2025-tickets-1307558395359?aff=ebdssbdestsearch,-37.82520299999999,144.952251,
WELL THANKS GOOD FRIDAY FUN RUN,2025-04-18,09:00,Princes Park - Lawn 3 (Next to Ikon Park),"200-590 Royal Parade Carlton North, VIC 3054",https://www.eventbrite.com.au/e/well-thanks-good-friday-fun-run-tickets-1266967867999?aff=ebdssbdestsearch,-37.7788812,144.962037,
(Good) Friday I'm In Love - Stay Goth,2025-04-18,23:00,Stay Gold,"133 Sydney Road Brunswick, VIC 3056",https://www.eventbrite.com.au/e/good-friday-im-in-love-stay-goth-tickets-1280357326229?aff=ebdssbdestsearch,-37.77435880000001,144.9606103,
Tech & Business Networking Melbourne,2025-04-18,18:00,215 Queen's Restaurant and Bar Melbourne,"215 Queen Street Melbourne, VIC 3000",https://www.eventbrite.com/e/tech-business-networking-melbourne-tickets-1249010286389?aff=ebdssbdestsearch,-37.8137882,144.9598785,
Bottomless Drinks for 2 Hours only $55 at Heroes Rooftop Bar!,2025-04-18,18:00,Heroes Bar Melbourne,"188 Bourke Street Melbourne, VIC 3000",https://www.eventbrite.com.au/e/bottomless-drinks-for-2-hours-only-55-at-heroes-rooftop-bar-tickets-1306686928779?aff=ebdssbdestsearch,-37.8126897,144.9676214,
"Monthly  Startup, Tech & Business Networking Melbourne",2025-04-18,18:00,215 Queen's Restaurant and Bar Melbourne,"215 Queen Street Melbourne, VIC 3000",https://www.eventbrite.com/e/monthly-startup-tech-business-networking-melbourne-tickets-1249010306449?aff=ebdssbdestsearch,-37.8137882,144.9598785,
DEADZONE hosted by smnksmt,2025-04-18,18:00,Stay Gold,"133 Sydney Road Brunswick, VIC 3056",https://www.eventbrite.com.au/e/deadzone-hosted-by-smnksmt-tickets-1311281992739?aff=ebdssbdestsearch,-37.77435880000001,144.9606103,
Sound Healing - Friday Sunset Sound Bath with Romy,2025-04-18,19:00,Private Studio in St Kilda East (see email for address),"Alma Road St Kilda East, VIC 3183",https://www.eventbrite.com.au/e/sound-healing-friday-sunset-sound-bath-with-romy-tickets-1301747123689?aff=ebdssbdestsearch,-37.8626178,145.0005983,
Malicy Single Launch,2025-04-18,20:00,The Workers Club,"51 Brunswick St, Fitzroy VIC 3065, Australia",https://www.facebook.com/events/655726530177856/,-37.8055776,144.9769450659087,Music
INTRUSIVE thoughts - MICF 2025,2025-04-18,06:30,Limerick Arms Hotel,"364 Clarendon Street South Melbourne, VIC 3205",https://www.eventbrite.com/e/intrusive-thoughts-micf-2025-tickets-1124798555759?aff=ebdssbdestsearch,-37.8354562,144.9614044,
AI &  Tech Networking Melbourne,2025-04-18,18:00,215 Queen's Restaurant and Bar Melbourne,"215 Queen Street Melbourne, VIC 3000",https://www.eventbrite.com/e/ai-tech-networking-melbourne-tickets-1296557441209?aff=ebdssbdestsearch,-37.8137882,144.9598785,
Business Networking: Pitch Night in Melbourne,2025-04-18,18:00,215 Queen's Restaurant and Bar Melbourne,"215 Queen Street Melbourne, VIC 3000",https://www.eventbrite.com/e/business-networking-pitch-night-in-melbourne-tickets-1296557411119?aff=ebdssbdestsearch,-37.8137882,144.9598785,
Tech Networking Event by Startup Valley  in Melbourne,2025-04-18,18:00,215 Queen's Restaurant and Bar Melbourne,"215 Queen Street Melbourne, VIC 3000",https://www.eventbrite.com/e/tech-networking-event-by-startup-valley-in-melbourne-tickets-1296557481329?aff=ebdssbdestsearch,-37.8137882,144.9598785,
Investor Connect: Pitch & Network Night  Melbourne,2025-04-18,18:00,215 Queen's Restaurant and Bar Melbourne,"215 Queen Street Melbourne, VIC 3000",https://www.eventbrite.com/e/investor-connect-pitch-network-night-melbourne-tickets-1291414358109?aff=ebdssbdestsearch,-37.8137882,144.9598785,
Melbourne Magic Show - Impossible Occurrences,2025-04-18,21:30,Melbourne Marriott Hotel,"Cnr Lonsdale & Exhibition St Melbourne, VIC 3000",https://www.eventbrite.com.au/e/melbourne-magic-show-impossible-occurrences-tickets-947627648807?aff=ebdssbdestsearch,-37.8100597,144.9697004,
Startup Pitch & Networking Melbourne,2025-04-18,18:00,215 Queen's Restaurant and Bar Melbourne,"215 Queen Street Melbourne, VIC 3000",https://www.eventbrite.com/e/startup-pitch-networking-melbourne-tickets-1296557421149?aff=ebdssbdestsearch,-37.8137882,144.9598785,
Teddy Bear Hospital at Kids Day Out 2025,2025-04-18,10:00,Melbourne Convention and Exhibition Centre (MCEC),"1 Convention Centre Place South Wharf, VIC 3006",https://www.eventbrite.com.au/e/teddy-bear-hospital-at-kids-day-out-2025-tickets-1247804499849?aff=ebdssbdestsearch,-37.82520299999999,144.952251,
Good Friday - John Course - 8 Hour Set,2025-04-18,14:00,The Railway Hotel- Windsor,"29 Chapel Street Windsor, VIC 3181",https://www.eventbrite.com.au/e/good-friday-john-course-8-hour-set-tickets-1255154473819?aff=ebdssbdestsearch,-37.8566744,144.9922172,
BENG single launch @ CACTUS ROOM,2025-04-18,19:00,Cactus Room,"614 High St, Thornbury VIC 3071, Australia",https://www.facebook.com/events/2067191930414163/,-37.76125825,145.00041662186553,Music
Monsters of Riff,2025-04-18,19:30,Northcote Social Club,"301 High St, Northcote VIC 3070, Australia",https://www.facebook.com/events/634617689063712/,-37.771471,144.998414,Music
GODDAMNED GREAT FRIDAY w/ BODIES / NO HOPER / GUN LAWS / MISANTHROPES / PALA / MONDO CANE,2025-04-18,20:30,The Old Bar,"74-76 Johnston St, Fitzroy VIC 3065, Australia",https://www.facebook.com/events/2105235993233052/,-37.79833,144.97711,Music
‘DAY JOB’ SINGLE LAUNCH @ SHOTKICKERS,2025-04-18,00:00,Shotkickers,"744 High St, Thornbury VIC 3071, Australia",https://www.facebook.com/events/1074830267808583/,-37.75592655,145.0013923,Music
DUETS: Peggy Lee and Frank Sinatra ,2025-04-18,18:30,Paris Cat Jazz Club,"6 Goldie Pl, Melbourne VIC 3000, Australia",https://www.facebook.com/events/4830205167204939/,-37.8133262,144.96060714767358,Music
Good Friday Night — Saltare x Revolver Fridays,2025-04-18,00:00,Revolver Upstairs,"Level 2/229 Chapel St, Prahran VIC 3181, Australia",https://www.facebook.com/events/1048455147180940/,-37.8505902,144.9933469,
"Parmy Dhillon - ""No Sleep Till Nashville"" @ Bergy w/ The Heartstrings & Kings of Mercury  ",2025-04-18,20:00,Bergy Bandroom,"64 Sydney Rd, Brunswick VIC 3056, Australia",https://www.facebook.com/events/2131158550689802/,-37.776327,144.9607158,Music
VIBES & THINGS: Underground Hip-Hop Jam,2025-04-19,00:00,Wax Music Lounge,"250 Flinders St, Melbourne VIC 3000, Australia",https://www.facebook.com/events/2461825920819936/,-37.8176298,144.9661635,Music
luv4her,2025-04-19,19:00,Stay Gold,"133 Sydney Road Brunswick, VIC 3056",https://www.eventbrite.com.au/e/luv4her-tickets-1245626695979?aff=ebdssbdestsearch,-37.77435880000001,144.9606103,
Club Nicki MELB - Nicki Minaj + female rap tribute party (Easter Saturday),2025-04-19,22:00,Chasers Nightclub,"386 Chapel Street South Yarra, VIC 3141",https://www.eventbrite.com.au/e/club-nicki-melb-nicki-minaj-female-rap-tribute-party-easter-saturday-tickets-1290943409489?aff=ebdssbdestsearch,-37.8459028,144.9947039,
"Absolute Chaos - Heckle Hard, Laugh Harder",2025-04-19,23:00,"Wheat, Wine & Whisky","284 Smith Street Collingwood, VIC 3066",https://www.eventbrite.com.au/e/absolute-chaos-heckle-hard-laugh-harder-tickets-1290894884349?aff=ebdssbdestsearch,-37.8008428,144.9842391,
"Bollywood Bunny Party at Decibles, Melbourne",2025-04-19,22:00,Inflation Entertainment Complex,"60 King Street Melbourne, VIC 3000",https://www.eventbrite.com.au/e/bollywood-bunny-party-at-decibles-melbourne-tickets-1291021884209?aff=ebdssbdestsearch,-37.8188863,144.9571605,
Easter Family Fun Day,2025-04-19,11:00,231-251 Mt Alexander Rd,"231-251 Mount Alexander Road Ascot Vale, VIC 3032",https://www.eventbrite.com.au/e/easter-family-fun-day-tickets-1273610827269?aff=ebdssbdestsearch,-37.7793109,144.9302118,
Speed Dating | Melbourne Saturday Night | Ages 27-49 | Fancy A Go?,2025-04-19,19:00,The Metropolitan Hotel,"265 William Street Melbourne, VIC 3000",https://www.eventbrite.com/e/speed-dating-melbourne-saturday-night-ages-27-49-fancy-a-go-tickets-1268174978499?aff=ebdssbdestsearch,-37.812902,144.9566615,
Taste of Shanghai,2025-04-19,09:00,65 Welfare Parade,"65 Welfare Parade Glen Iris, VIC 3146",https://www.eventbrite.com.au/e/taste-of-shanghai-tickets-1296412768489?aff=ebdssbdestsearch,-37.8568719,145.0836731,
Melbourne City Photo Walk- Travel Photography Course,2025-04-19,09:30,State Library,"State Library Melbourne, VIC 3000",https://www.eventbrite.com.au/e/melbourne-city-photo-walk-travel-photography-course-tickets-1099520207539?aff=ebdssbdestsearch,-37.8097255,144.9654504,
Diploma in Reflexology,2025-04-19,09:30,St Joseph's,"16 Esplanade Williamstown, VIC 3016",https://www.eventbrite.com.au/e/diploma-in-reflexology-tickets-1123728364789?aff=ebdssbdestsearch,-37.869719,144.8987936,
Techno vs Psytrance - Episode 3 [Easter Saturday - Beyond the Rabbit Hole],2025-04-19,21:00,my aeon,"791 Sydney Road Brunswick, VIC 3056",https://www.eventbrite.com.au/e/techno-vs-psytrance-episode-3-easter-saturday-beyond-the-rabbit-hole-tickets-1311458460559?aff=ebdssbdestsearch,-37.7581868,144.9633301,
Soft Spine Bookbinding Workshop,2025-04-19,10:30,Artocracy,"435 Sydney Road Brunswick, VIC 3056",https://www.eventbrite.com/e/soft-spine-bookbinding-workshop-tickets-1307419068629?aff=ebdssbdestsearch,-37.7671579,144.9619772,
Hoppy Crafts - Westside Easter Kid's Craft Day,2025-04-19,13:00,Westside Ale Works,"36 Alfred Street South Melbourne, VIC 3205",https://www.eventbrite.com.au/e/hoppy-crafts-westside-easter-kids-craft-day-tickets-1307785334139?aff=ebdssbdestsearch,-37.8320645,144.9494395,
"Every Saturday, Bollywood Club presents BOLLYWOOD ROOM at Cleo's Lounge.",2025-04-19,22:00,Cleo’s Lounge & Bar,"123 Collins Street, Melbourne (situated In Grand Hyatt Melbourne) Melbourne, VIC 3000",https://www.eventbrite.com.au/e/every-saturday-bollywood-club-presents-bollywood-room-at-cleos-lounge-tickets-1307910779349?aff=ebdssbdestsearch,-37.8152075,144.9698275,
ワーキングホリデー参加者と英語学習者のためのフレンドシップナイト (無料ピザ付き、午後8時以降は入場禁止),2025-04-19,18:00,215 Queen's Bar,"215 Queen Street Melbourne, VIC 3000",https://www.eventbrite.com.au/e/8-tickets-1148750617019?aff=ebdssbdestsearch,-37.8137882,144.9598785,
Paper Jane  at The Lomond Hotel.,2025-04-19,21:00,The Lomond Hotel,"225 Nicholson Street Brunswick East, VIC 3057",https://www.eventbrite.com.au/e/paper-jane-at-the-lomond-hotel-tickets-1311312654449?aff=ebdssbdestsearch,-37.7670861,144.9800057,
Speed Dating | Melbourne Saturday Night | Ages 27-49 | Do You Relish?,2025-04-19,19:00,The Metropolitan Hotel,"265 William Street Melbourne, VIC 3000",https://www.eventbrite.com/e/speed-dating-melbourne-saturday-night-ages-27-49-do-you-relish-tickets-1268174968469?aff=ebdssbdestsearch,-37.812902,144.9566615,
Sound Healing - Vibro Acoustic Sound Bath with Romy,2025-04-19,19:00,Private Studio in St Kilda East (see email for address),"Alma Road St Kilda East, VIC 3183",https://www.eventbrite.com.au/e/sound-healing-vibro-acoustic-sound-bath-with-romy-tickets-1284958789329?aff=ebdssbdestsearch,-37.8626178,145.0005983,
"Women's Tango, Salsa, Dance Classes",2025-04-19,15:30,I.AM.DANCE,"Kerr Street Fitzroy, VIC 3065",https://www.eventbrite.com.au/e/womens-tango-salsa-dance-classes-tickets-1277403481199?aff=ebdssbdestsearch,-37.7968685,144.9798521,
Slow Death - Jai Ashman,2025-04-19,17:00,Goff's Comedy,"215 Swan Street Richmond, VIC 3121",https://www.eventbrite.com.au/e/slow-death-jai-ashman-tickets-1262124571569?aff=ebdssbdestsearch,-37.8256242,144.9994168,
(2 hours ×6)Low-Cost Watercolour Painting Workshop,2025-04-19,10:00,383 High St,"383 High Street Preston, VIC 3072",https://www.eventbrite.com.au/e/2-hours-6low-cost-watercolour-painting-workshop-tickets-1297749276019?aff=ebdssbdestsearch,-37.740719,145.003302,
Altona Meditation Group,2025-04-19,16:00,Louis Joel Arts & Community Centre,"5 Sargood Street Altona, VIC 3018",https://www.eventbrite.com.au/e/altona-meditation-group-tickets-1280550293399?aff=ebdssbdestsearch,-37.8695719,144.8283957,
Speed Dating | Melbourne Saturday Night | Ages 27-49 | SpeedAustralia,2025-04-19,19:00,The Metropolitan Hotel,"265 William Street Melbourne, VIC 3000",https://www.eventbrite.com/e/speed-dating-melbourne-saturday-night-ages-27-49-speedaustralia-tickets-1266868771599?aff=ebdssbdestsearch,-37.812902,144.9566615,
ALKALI @ THE WORKERS CLUB with openers (Phat Cat Trio & Collected Senses) ,2025-04-19,13:00,The Workers Club,"51 Brunswick St, Fitzroy VIC 3065, Australia",https://www.facebook.com/events/1106891064260797/,-37.8055776,144.9769450659087,
Lesbian Wine Club - Pray for Gay | Unholy Saturday,2025-04-19,19:30,Caz Reitop's Dirty Secrets,"80 Smith Street Collingwood, VIC 3066",https://www.eventbrite.co.uk/e/lesbian-wine-club-pray-for-gay-unholy-saturday-tickets-1292621759479?aff=ebdssbdestsearch,-37.8059003,144.9831738,
BROOKLYN SATURDAYS - RNB HIPHOP THROWBACKS PARTY LATIN,2025-04-19,21:00,The Black Rabbit,"85 Queen Street Melbourne, VIC 3000",https://www.eventbrite.com/e/brooklyn-saturdays-rnb-hiphop-throwbacks-party-latin-tickets-932351106257?aff=ebdssbdestsearch,-37.81636779999999,144.9611486,
The St Kilda Bar Crawl - Easter Saturday Edition,2025-04-19,15:00,Red Eye Bar,"17 Carlisle Street St Kilda, VIC 3182",https://www.eventbrite.com.au/e/the-st-kilda-bar-crawl-easter-saturday-edition-tickets-1306592857409?aff=ebdssbdestsearch,-37.8672306,144.9801502,
Energy In Motion - An Ecstatic Dance & Cacao Journey.,2025-04-19,18:30,Centre of You,"Upstairs, 217 Chapel St Prahran Melbourne, VIC 3181",https://www.eventbrite.com.au/e/energy-in-motion-an-ecstatic-dance-cacao-journey-tickets-1277163072129?aff=ebdssbdestsearch,-37.8509316,144.9933031,
EXILES - W/ COPE & DRAG AND ECHO SOCIAL CLUB,2025-04-19,19:00,The Last Chance,"238 Victoria St, Melbourne VIC 3000, Australia",https://www.facebook.com/events/1184964593008210/,-37.8059962,144.9585654,Music
Floating Dreams X BCR pres. SHINGO NAKAMURA [Monstercat Silk / Anjunadeep / Otographic],2025-04-19,16:00,Howler,"7-11 Dawson St, Brunswick VIC 3056, Australia",https://www.facebook.com/events/1327330345383009/,-37.7720304,144.9596527,
Madagascar The Musical,2025-04-19,14:30,Palais Theatre,"Lower Esplanade, St Kilda VIC 3182, Australia",https://www.facebook.com/events/635641045665633/,-37.86708671,144.97599656199426,Theatre
Light Language Galactivation Transmission–Soul Activation & Energy Healing.,2025-04-19,10:30,Centre of You,"Upstairs, 217 Chapel St Prahran Melbourne, VIC 3181",https://www.eventbrite.com.au/e/light-language-galactivation-transmissionsoul-activation-energy-healing-tickets-1297583279519?aff=ebdssbdestsearch,-37.8509316,144.9933031,
NERVOSA - Melbourne - Northcote Social Club - Sat 19th April,2025-04-19,20:00,Northcote Social Club,"301 High St, Northcote VIC 3070, Australia",https://www.facebook.com/events/1855177518584300/,-37.771471,144.998414,
primetime. 'The White Album' EP LAUNCH at THE GEM,2025-04-19,19:30,The Gem Bar and Dining,"289 Wellington St, Collingwood VIC 3066, Australia",https://www.facebook.com/events/1339192567288649/,-37.7963837,144.9875917,
FUNGAS @ THE GEM (Afternoon show),2025-04-19,15:30,The Gem Bar and Dining,"289 Wellington St, Collingwood VIC 3066, Australia",https://www.facebook.com/events/1616155152350742/,-37.7963837,144.9875917,Music
Madagascar The Musical,2025-04-19,18:00,Palais Theatre,"Lower Esplanade, St Kilda VIC 3182, Australia",https://www.facebook.com/events/908137244534001/,-37.86708671,144.97599656199426,Theatre
UFO ! UFO !,2025-04-19,00:00,Bar 303,"303 High St, Northcote VIC 3070, Australia",https://www.facebook.com/events/564246699444353/,-37.7713296,144.99828116650363,Music
Madagascar The Musical Melbourne,2025-04-19,14:30,Palais Theatre,"Lower Esplanade, St Kilda VIC 3182, Australia",https://www.facebook.com/events/8241193786009446/,-37.86708671,144.97599656199426,Theatre
Active Never Lazy - Calisthenics  Seminar,2025-04-19,12:30,71 Victoria St,"71 Victoria Street Seddon, VIC 3011",https://www.eventbrite.com.au/e/active-never-lazy-calisthenics-seminar-tickets-1302784636919?aff=ebdssbdestsearch,-37.8039386,144.8924816,
Marcellus Pittman B2B DJ JNETT,2025-04-19,21:00,The Night Cat,"137-141 Johnston St, Fitzroy VIC 3065, Australia",https://www.facebook.com/events/539838462106991/,-37.7982971,144.978128,Music
Creative Awakening: VISION BOARD YOUR SOUL,2025-04-19,10:30,Prana House,"885 High Street #Level 1 Thornbury, VIC 3071",https://www.eventbrite.com.au/e/creative-awakening-vision-board-your-soul-tickets-1305696787239?aff=ebdssbdestsearch,-37.7537691,145.0011906,
All You Can Eat Afro Buffet,2025-04-19,16:00,350 Arden St,"350 Arden Street Kensington, VIC 3031",https://www.eventbrite.com.au/e/all-you-can-eat-afro-buffet-tickets-1318298760079?aff=ebdssbdestsearch,-37.7989143,144.9343983,
"""Luna"" Tour - Melbourne",2025-04-19,20:00,Bergy Bandroom,"64 Sydney Rd, Brunswick VIC 3056, Australia",https://www.facebook.com/events/996645465296531/,-37.776327,144.9607158,Music
Eat The Beat pres. TAO ANDRA [VOLTA],2025-04-19,22:00,New Guernica,"64 Smith Street Collingwood, VIC 3066",https://www.eventbrite.com.au/e/eat-the-beat-pres-tao-andra-volta-tickets-1301698568459?aff=ebdssbdestsearch,-37.8062529,144.9832565,
Kings of Comedy's 'Uncensored - Underground - Unrivalled'  MICF Showcase,2025-04-19,19:00,The Colonial Hotel,"585 Lonsdale Street Melbourne, VIC 3000",https://www.eventbrite.com.au/e/kings-of-comedys-uncensored-underground-unrivalled-micf-showcase-tickets-1203437376589?aff=ebdssbdestsearch,-37.8145646,144.9551429,
Easter Sunday Lunch 2025 at Le Méridien Melbourne (only $69pp),2025-04-20,12:30,Dolly Restaurant & Cocktail Bar,"20 Bourke Street Melbourne, VIC 3000",https://www.eventbrite.com.au/e/easter-sunday-lunch-2025-at-le-meridien-melbourne-only-69pp-tickets-1312331923109?aff=ebdssbdestsearch,-37.8113901,144.9722393,
The Pheasantry at The Lomond Hotel,2025-04-20,21:00,The Lomond Hotel,"225 Nicholson Street Brunswick East, VIC 3057",https://www.eventbrite.com.au/e/the-pheasantry-at-the-lomond-hotel-tickets-1316080705819?aff=ebdssbdestsearch,-37.7670861,144.9800057,
ENSTER SUNDAY,2025-04-20,22:00,Royal Melbourne Hotel,"629 Bourke Street Melbourne, VIC 3000",https://www.eventbrite.com.au/e/enster-sunday-tickets-1117446686119?aff=ebdssbdestsearch,-37.8168528,144.9552468,
Domingo Latino - Tumbao Social,2025-04-20,18:45,The Night Cat,"137-141 Johnston St, Fitzroy VIC 3065, Australia",https://www.facebook.com/events/1715064859367325/,-37.7982971,144.978128,Music
(2 hours × 6)Low-Cost Watercolour Painting Workshop,2025-04-20,10:00,383 High St,"383 High Street Preston, VIC 3072",https://www.eventbrite.com.au/e/2-hours-6low-cost-watercolour-painting-workshop-tickets-1297751261959?aff=ebdssbdestsearch,-37.740719,145.003302,
Circus Presents - You.Me & Easter Sunday,2025-04-20,15:00,199 Commercial Rd,"199 Commercial Road South Yarra, VIC 3141",https://www.eventbrite.com.au/e/circus-presents-youme-easter-sunday-tickets-1317144898849?aff=ebdssbdestsearch,-37.8465589,144.993086,
Fasika Party,2025-04-20,21:00,Diamond Shisha Lounge & Bar,"1B Willaton Street Saint Albans, VIC 3021",https://www.eventbrite.com/e/fasika-party-tickets-1317303904439?aff=ebdssbdestsearch,-37.7600617,144.8108726,
CLUB MODA MELBOURNE | 20.04.25 | EASTER SUNDAY | ALBION ROOFTOP,2025-04-20,21:00,The Albion Rooftop,"172 York Street South Melbourne, VIC 3205",https://www.eventbrite.com.au/e/club-moda-melbourne-200425-easter-sunday-albion-rooftop-tickets-1292427217599?aff=ebdssbdestsearch,-37.8315105,144.9560408,
BC #454 (30hr Easter edition),2025-04-20,21:00,onesixone,"161 High Street Prahran, VIC 3181",https://www.eventbrite.com.au/e/bc-454-30hr-easter-edition-tickets-1309526552169?aff=ebdssbdestsearch,-37.85173229999999,144.9936589,
Easter Brunch and Mimosas,2025-04-20,10:30,Novotel Melbourne Glen Waverley,"285 Springvale Road Glen Waverley, VIC 3150",https://www.eventbrite.com.au/e/easter-brunch-and-mimosas-tickets-1296351073959?aff=ebdssbdestsearch,-37.8812875,145.1647251,
WLU Presents: Sneaky Link Melbourne,2025-04-20,16:00,The Emerson Rooftop Bar and Club,"141-145 Commercial Road South Yarra, VIC 3141",https://www.eventbrite.com.au/e/wlu-presents-sneaky-link-melbourne-tickets-1298788825339?aff=ebdssbdestsearch,-37.8462997,144.9911964,
Easter Luncheon 2025 - Reggio Calabria Club - Member's Lounge & Bistroteca,2025-04-20,12:30,"Reggio Calabria Club - Italian Bistro, Restaurant & Multi Venue Function Centre","476 Brunswick Road Parkville, VIC 3052",https://www.eventbrite.com.au/e/easter-luncheon-2025-reggio-calabria-club-members-lounge-bistroteca-tickets-1007848962377?aff=ebdssbdestsearch,-37.7751504,144.938016,
SUNDAY - Fitzroy Market (March and April 2025),2025-04-20,10:00,Fitzroy Mills Market,"75 Rose Street Fitzroy, VIC 3065",https://www.eventbrite.com.au/e/sunday-fitzroy-market-march-and-april-2025-tickets-1222969908919?aff=ebdssbdestsearch,-37.7956693,144.9779514,
SWEAT Resurrection Rave @ Yah Yah's SUN APRIL 20th,2025-04-20,21:00,Yah Yahs,"99 Smith Street Fitzroy, VIC 3065",https://www.eventbrite.com.au/e/sweat-resurrection-rave-yah-yahs-sun-april-20th-tickets-1318211087849?aff=ebdssbdestsearch,-37.8058635,144.9829641,
333 x The Emerson - Easter Sunday : 20.04.25 Special Event,2025-04-20,21:00,The Emerson Rooftop Bar and Club,"141-145 Commercial Road South Yarra, VIC 3141",https://www.eventbrite.com.au/e/333-x-the-emerson-easter-sunday-200425-special-event-tickets-1314868138999?aff=ebdssbdestsearch,-37.8462997,144.9911964,
Open Day at La Trobe's Cottage,2025-04-20,13:00,La Trobe's Cottage,"Dallas Brooks Drive Melbourne, VIC 3004",https://www.eventbrite.com.au/e/open-day-at-la-trobes-cottage-tickets-911860357877?aff=ebdssbdestsearch,-37.8304573,144.9768439,
The Joy of Watercolour: A Beginner’s Workshop (art materials included),2025-04-20,10:00,Melbourne Central,"Level 1 , 211 La Trobe St, Melbourne VIC 3000 Melbourne, VIC 3000",https://www.eventbrite.com.au/e/the-joy-of-watercolour-a-beginners-workshop-art-materials-included-tickets-1278958161289?aff=ebdssbdestsearch,-37.8106228,144.9631884,
Trapcn Star DJ Yida Hits Club 24 This Easter!,2025-04-20,10:30,229 Queensberry St,"229 Queensberry Street Carlton, VIC 3053",https://www.eventbrite.com/e/trapcn-star-dj-yida-hits-club-24-this-easter-tickets-1316064126229?aff=ebdssbdestsearch,-37.8044694,144.9611382,
Goodroom with Gumm + Nick Young & Rob Anthony,2025-04-20,19:00,Goodroom,"Level 1, 265 Chapel St Prahran Melbourne, VIC 3141",https://www.eventbrite.com.au/e/goodroom-with-gumm-nick-young-rob-anthony-tickets-1306179360629?aff=ebdssbdestsearch,-37.849137,144.99355,
RHYSICS x JARROW x BAREFOOT BOWLS CLUB,2025-04-20,20:00,Bergy Bandroom,"64 Sydney Rd, Brunswick VIC 3056, Australia",https://www.facebook.com/events/1879240612612018/,-37.776327,144.9607158,Music
"EASTER 4:20 SMUTFEST W/ CHOOF, LIVID (U.S), SKEZM, BAD LOO TENANT",2025-04-20,01:00,The Last Chance,"238 Victoria St, Melbourne VIC 3000, Australia",https://www.facebook.com/events/23938990519060160/,-37.8059962,144.9585654,Music
The Sharp EP Launch Northcote Social Club,2025-04-20,00:00,Northcote Social Club,"301 High St, Northcote VIC 3070, Australia",https://www.facebook.com/events/1423508542365009/,-37.771471,144.998414,
Moon Elevator single launch with Great Australian Bank & Nausicaa,2025-04-20,13:00,The Workers Club,"51 Brunswick St, Fitzroy VIC 3065, Australia",https://www.facebook.com/events/1220645309503264/,-37.8055776,144.9769450659087,Music
GREEN SABBATH 420,2025-04-20,19:30,The Old Bar,"74-76 Johnston St, Fitzroy VIC 3065, Australia",https://www.facebook.com/events/2094676124292844/,-37.79833,144.97711,Music
Funk Formula Takeover — Revolver Sundays,2025-04-20,00:00,Revolver Upstairs,"Level 2/229 Chapel St, Prahran VIC 3181, Australia",https://www.facebook.com/events/1012579050209317/,-37.8505902,144.9933469,
Hello Kitty's Super Adventure The Musical,2025-04-20,18:30,Palais Theatre,"Lower Esplanade, St Kilda VIC 3182, Australia",https://www.facebook.com/events/1717101778846006/,-37.86708671,144.97599656199426,Theatre
ENSTER SUNDAY ✞ BAD LOVE LIVE,2025-04-20,22:00,Royal Melbourne Hotel,"629 Bourke Street Melbourne, VIC 3000",https://www.eventbrite.com.au/e/enster-sunday-bad-love-live-tickets-1117446686119?aff=ebdssbdestsearch,-37.8168528,144.9552468,
Ekhaya Piano Groove Experience  ft Nandipha808 & Dolly Ditebogo,2025-04-20,16:00,The Third Day,"290 Macaulay Road North Melbourne, VIC 3051",https://www.eventbrite.com.au/e/ekhaya-piano-groove-experience-ft-nandipha808-dolly-ditebogo-tickets-1252637836489?aff=ebdssbdestsearch,-37.7946786,144.9367079,
"Learn stand-up comedy in Melbourne this April with Danny McGinlay, 2025",2025-04-20,18:30,Roxy's Functions & Events,"2 Alfred Place South Melbourne, VIC 3205",https://www.eventbrite.com.au/e/learn-stand-up-comedy-in-melbourne-this-april-with-danny-mcginlay-2025-tickets-1023147109547?aff=ebdssbdestsearch,-37.8314108,144.9592778,
George Thorogood & The Destroyers,2025-04-21,12:00,Forum Melbourne,"150 Flinders St, Melbourne VIC 3000, Australia",https://premier.ticketek.com.au/shows/show.aspx?sh=GTHORO25,-37.8166268,144.9695761,
Hello Kitty's Super Adventure The Musical,2025-04-21,18:30,Palais Theatre,"Lower Esplanade, St Kilda VIC 3182, Australia",https://www.facebook.com/events/541936728200808/,-37.86708671,144.97599656199426,Theatre
Hello Kitty's Super Adventure The Musical,2025-04-21,13:30,Palais Theatre,"Lower Esplanade, St Kilda VIC 3182, Australia",https://www.facebook.com/events/509122635537760/,-37.86708671,144.97599656199426,Theatre
"‘Social Sanctuary’ with Mr. Industry, Red Moon Cowboy + Billy Cart",2025-04-21,19:00,Northcote Social Club,"301 High St, Northcote VIC 3070, Australia",https://www.facebook.com/events/634062769487783/,-37.771471,144.998414,
George Thorogood & The Destroyers | Melbourne,2025-04-21,19:00,Forum Melbourne,"154 Flinders St, Melbourne VIC 3000, Australia",https://www.facebook.com/events/1356208892050997/,-37.81644145,144.9693768124984,Music
Christone 'KINGFISH' Ingram | Northcote Theatre,2025-04-21,18:00,Northcote Theatre,"216 High St, Northcote VIC 3070, Australia",https://www.facebook.com/events/1214745756343409/,-37.7737068,144.9982706,Music
KATHLEEN HALLORAN @ SHOTKICKERS w Tiaryn + Sannia,2025-04-21,18:00,Shotkickers,"744 High St, Thornbury VIC 3071, Australia",https://www.facebook.com/events/1173837174406817/,-37.75592655,145.0013923,Music
Morbid Mondays At Old Bar - EPIC THRASH / PIRATE CROSSOVER w/ Common Evil & Rum Runners,2025-04-21,20:00,The Old Bar,"74-76 Johnston St, Fitzroy VIC 3065, Australia",https://www.facebook.com/events/1364389017913031/,-37.79833,144.97711,Music
Taste Test The Melbourne Comedy Festival Session 3,2025-04-22,18:30,26 Errol St,"26 Errol Street North Melbourne, VIC 3051",https://www.eventbrite.com.au/e/taste-test-the-melbourne-comedy-festival-session-3-tickets-1307620360699?aff=ebdssbdestsearch,-37.80456,144.9498312,
Fresh Networking Balwyn  -  Guest Registration,2025-04-22,07:30,Stranger Coffeehouse & Kitchen,"208 Whitehorse Road Balwyn, VIC 3103",https://www.eventbrite.com.au/e/fresh-networking-balwyn-guest-registration-tickets-1088342865809?aff=ebdssbdestsearch,-37.8129294,145.0799533,
"Heritage Month Guided Tours: Secret Treasures, with Viennese Afternoon Tea",2025-04-22,13:30,Duldig Studio Museum & Sculpture Garden,"92 Burke Road East Malvern, VIC 3145",https://www.eventbrite.com.au/e/heritage-month-guided-tours-secret-treasures-with-viennese-afternoon-tea-tickets-1244292776189?aff=ebdssbdestsearch,-37.8689721,145.0498034,
Comedy Night | Melbourne Working Holiday Girls,2025-04-22,18:00,Catfish Comedy,"30 Gertrude Street Fitzroy, VIC 3065",https://www.eventbrite.com.au/e/comedy-night-melbourne-working-holiday-girls-tickets-1305750347439?aff=ebdssbdestsearch,-37.8056865,144.9751865,
POTTERY ART CLASSES,2025-04-22,13:00,2/226 Bell St,"226 Bell Street #2 Preston, VIC 3072",https://www.eventbrite.com.au/e/pottery-art-classes-tickets-1318263093399?aff=ebdssbdestsearch,-37.7462328,145.0152042,
Hardware Road Synth Meet - Jani Ho & Five Minute Jams,2025-04-22,00:00,Howler,"7-11 Dawson St, Brunswick VIC 3056, Australia",https://www.facebook.com/events/2131111693995875/,-37.7720304,144.9596527,
The Return of aaalto,2025-04-22,19:30,Bar 303,"303 High St, Northcote VIC 3070, Australia",https://www.facebook.com/events/1186879873078447/,-37.7713296,144.99828116650363,Music
IMPLEMENTION - Overview of Lean Design Implementation,2025-04-23,17:00,Level Crossing Removal Project,"121 Exhibition Street #9 Melbourne, VIC 3004",https://www.eventbrite.com.au/e/implemention-overview-of-lean-design-implementation-tickets-1311411038719?aff=ebdssbdestsearch,-37.8126466,144.9703747,
Compatible Speed Dating | Melbourne | Ages 31-46 ✨,2025-04-23,19:00,Fable Melbourne,"168 Lonsdale Street Level 13 Melbourne, VIC 3000",https://www.eventbrite.com.au/e/compatible-speed-dating-melbourne-ages-31-46-tickets-1314900395479?aff=ebdssbdestsearch,-37.8105688,144.967374,
"The Stems @ Northcote Social Club, Melbourne w Rinehearts",2025-04-23,19:00,Northcote Social Club,"301 High St, Northcote VIC 3070, Australia",https://www.facebook.com/events/1123252532520802/,-37.771471,144.998414,Music
Rodrigo y Gabriela | Northcote Theatre,2025-04-23,19:30,Northcote Theatre,"216 High St, Northcote VIC 3070, Australia",https://www.facebook.com/events/1003268101816581/,-37.7737068,144.9982706,Music
Rag'n'Bone Man | The Forum,2025-04-23,18:00,Forum Melbourne,"154 Flinders St, Melbourne VIC 3000, Australia",https://www.facebook.com/events/527373703174539/,-37.81644145,144.9693768124984,Music
Rag'n'Bone Man,2025-04-23,12:00,Forum Melbourne,"180 Flinders St, Melbourne VIC 3000, Australia",https://premier.ticketek.com.au/shows/show.aspx?sh=RAGNBONE25,-37.816602,144.9694678,
Over 50's Beginner Tap,2025-04-23,12:30,Dance Factory,"225 Swan Street Richmond, VIC 3121",https://www.eventbrite.com.au/e/over-50s-beginner-tap-tickets-1298810369779?aff=ebdssbdestsearch,-37.8257354,144.9998261,
"MID WEEK CRISIS with A Stationary Frame, Xavier Switchblades and Gorewhore",2025-04-23,19:00,The Last Chance,"238 Victoria St, Melbourne VIC 3000, Australia",https://www.facebook.com/events/1141882654408685/,-37.8059962,144.9585654,
Adult Beginner/Inter Contemporary,2025-04-23,11:30,Dance Factory,"225 Swan Street Richmond, VIC 3121",https://www.eventbrite.com.au/e/adult-beginnerinter-contemporary-tickets-1317139643129?aff=ebdssbdestsearch,-37.8257354,144.9998261,
Australian Construction Market Overview,2025-04-23,17:30,"Arcadis, Melbourne","Level 18, Queen & Collins Tower 376-390 Collins Street Melbourne, VIC 3000",https://www.eventbrite.com.au/e/australian-construction-market-overview-tickets-1290789489109?aff=ebdssbdestsearch,-37.8183159,144.9624481,
Conscious Breathwork by Breath Balance,2025-04-23,07:30,Elwood Sailing Club,"5 Elwood Foreshore Elwood, VIC 3184",https://www.eventbrite.com.au/e/conscious-breathwork-by-breath-balance-tickets-1320703903929?aff=ebdssbdestsearch,-37.8879933,144.9832889,
Sound Healing - NURTURE Sound Bath with Romy,2025-04-23,19:30,Private Studio in St Kilda East (see email for address),"Alma Road St Kilda East, VIC 3183",https://www.eventbrite.com.au/e/sound-healing-nurture-sound-bath-with-romy-tickets-1285102037789?aff=ebdssbdestsearch,-37.8626178,145.0005983,
Paint n Sip in Melbourne | Midnight Glow,2025-04-23,18:30,Ladder Art Space,"4/81 Denmark St Kew, VIC 3101",https://www.eventbrite.com.au/e/paint-n-sip-in-melbourne-midnight-glow-tickets-130845647855?aff=ebdssbdestsearch,-37.8089958,145.0285779,
Melbourne Speed Dating for ages 25-39 by Cheeky Events Australia,2025-04-23,19:00,The Collection Bar,"328 Bridge Road Richmond Melbourne, VIC 3121",https://www.eventbrite.com.au/e/melbourne-speed-dating-for-ages-25-39-by-cheeky-events-australia-tickets-1139355877099?aff=ebdssbdestsearch,-37.8190785,145.0022342,
"Class of 2010 ft Malthouse, Maxwell, Pendlebury & The Cup LIVE!",2025-04-23,19:00,Shoppingtown Hotel,"19 Williamsons Road Doncaster, VIC 3108",https://www.eventbrite.com.au/e/class-of-2010-ft-malthouse-maxwell-pendlebury-the-cup-live-tickets-1249913869029?aff=ebdssbdestsearch,-37.7851283,145.1227497,
Greece SUp,2025-04-23,10:00,Atlantis Hotel,"300 Spencer Street Melbourne, VIC 3000",https://www.eventbrite.ca/e/greece-sup-tickets-1286860958769?aff=ebdssbdestsearch,-37.8136177,144.9519594,
FIOR Showcase,2025-04-23,18:00,476 Brunswick Rd,"476 Brunswick Road Parkville, VIC 3055",https://www.eventbrite.com/e/fior-showcase-tickets-1261813671659?aff=ebdssbdestsearch,-37.7751504,144.938016,
Chunk #23 | BEAST MODE | Sports Edition & Our 3rd Bday | 24.04.25,2025-04-24,21:00,24 Moons,"2 Arthurton Road Northcote, VIC 3070",https://www.eventbrite.com.au/e/chunk-23-beast-mode-sports-edition-our-3rd-bday-240425-tickets-1298749547859?aff=ebdssbdestsearch,-37.7691172,144.9982721,
"(THREE TABLES LEFT) 'MICK, NICK & ED' Mick Pealing, Nick Charles & Ed Bates (ANZAC DAY EVE)",2025-04-24,00:00,arcobar heatherton,"8 Arco Ln, Heatherton VIC 3202, Australia",https://www.facebook.com/events/917540983548913/,-37.94673685,145.07837928457485,Music
DISCO NOT DISCO - Dance Punk / Mutant Disco / Indie Sleaze / Local Noise,2025-04-24,00:00,Retreat Hotel,"Level 1/280 Sydney Rd, Brunswick VIC 3056, Australia",https://www.facebook.com/events/10072158132819046/,-37.7711487,144.9615949,Music
PBS 106.7FM presents MIDNIGHT DRIVER at REVOLVER UPSTAIRS,2025-04-24,00:00,Revolver Upstairs,"Level 2/229 Chapel St, Prahran VIC 3181, Australia",https://www.facebook.com/events/567994786245554/,-37.8505902,144.9933469,Music
FUKHED | MELBOURNE | THE NIGHT CAT,2025-04-24,21:00,The Night Cat,"137-141 Johnston St, Fitzroy VIC 3065, Australia",https://www.facebook.com/events/534836399027207/,-37.7982971,144.978128,Music
Crooked Colours Melbourne,2025-04-24,22:00,Howler,"7-11 Dawson St, Brunswick VIC 3056, Australia",https://www.facebook.com/events/735007555518744/,-37.7720304,144.9596527,
Robbie Bundle (band) // Thur Arvo Gig Series,2025-04-24,14:00,Kindred Bandroom,"3 Harris St, Footscray VIC 3011, Australia",https://www.facebook.com/events/1013379256912748/,-37.8119001,144.9008247,Music
Hermosa Sounds: An Evening of Female Voices ,2025-04-24,19:00,MEMO Music Hall,"88 Acland St, St Kilda VIC 3182, Australia",https://www.facebook.com/events/1578549099513621/,-37.8671902,144.9786817,Music
Leroy Macqueen Live At The Bergy Band Room,2025-04-24,17:00,Bergy Bandroom,"64 Sydney Rd, Brunswick VIC 3056, Australia",https://www.facebook.com/events/1701004750489990/,-37.776327,144.9607158,Music
RY X,2025-04-24,00:00,Melbourne Recital Centre,"31 Sturt St, Southbank VIC 3006, Australia",https://www.facebook.com/events/924157116217365/?event_time_id=937668238199586,-37.82408485,144.96758763141432,Music
Cold Snap & Thursday Night Jam!,2025-04-24,00:00,Hume Blues Club Inc,"27 Ballantyne St, Thornbury VIC 3071, Australia",https://www.facebook.com/events/1354710085477428/,-37.7588241,144.9985126,Music
Assorted Sporks Poetry and Performance Featuring Sarah St James,2025-04-24,00:00,Mamma Chen's,"42A Albert St, Footscray VIC 3011, Australia",https://www.facebook.com/events/671360342011698/,-37.8047552,144.89727240000002,Theatre
Chunk #23 | Beast Mode Sports Edition & 3rd Birthday | 24.04.2025,2025-04-24,00:00,24 Moons,"2 Arthurton Rd, Northcote VIC 3070, Australia",https://www.facebook.com/events/682866411016842/,-37.7691418,144.9982614,Social/Dating
Johnstone/Neal/Spicer featuring Tim Stocker - The Organ Cookbook,2025-04-24,00:00,Paris Cat Jazz Club,"6 Goldie Pl, Melbourne VIC 3000, Australia",https://www.facebook.com/events/1128384648977377/,-37.8133262,144.96060714767358,Music
RAT PACK - Oz Rock Fest,2025-04-24,00:00,Musicland Melbourne,"1359 Sydney Rd, Fawkner VIC 3060, Australia",https://www.facebook.com/events/555683297631863/,-37.6916774,144.9585701581541,Music
Pseudo Echo - April 24 ANZAC DAY HOLIDAY EVE  - Brunswick Ballroom Melbourne Vic,2025-04-24,18:30,Brunswick Ballroom,"314 Sydney Rd, Brunswick VIC 3056, Australia",https://www.facebook.com/events/550898591051480/,-37.7704205,144.9617083,Music
"FESTA DELLA LIBERTA Feat: DJs Eddie Rinaldo, Mark Pellegrini & Pauly-J Live",2025-04-24,20:00,Olympic Hotel,"31 Albert Street Preston, VIC 3072",https://www.eventbrite.com.au/e/festa-della-liberta-feat-djs-eddie-rinaldo-mark-pellegrini-pauly-j-live-tickets-1268229551729?aff=ebdssbdestsearch,-37.7465792,145.021604,
38+ YO | April 24th | Serves & Sparks:  A Pickleball Social for Singles,2025-04-24,18:00,PicklePlay Indoor Pickleball,"1 South Drive Bentleigh East, VIC 3165",https://www.eventbrite.com.au/e/38-yo-april-24th-serves-sparks-a-pickleball-social-for-singles-tickets-1313546846979?aff=ebdssbdestsearch,-37.9106715,145.0613664,
PAPRIKA SINGLE LAUNCH: I WANT IT/ MOVIN ON,2025-04-24,19:30,Solace Bar,"21-25 Croft Alley Melbourne, VIC 3000",https://www.eventbrite.com/e/paprika-single-launch-i-want-it-movin-on-tickets-1307446711309?aff=ebdssbdestsearch,-37.812055,144.969092,
Novel presents Stacey Pullen (US) - Anzac Day Eve,2025-04-24,22:00,Sub Club Melbourne,"Flinders Court Melbourne, VIC 3000",https://www.eventbrite.com.au/e/novel-presents-stacey-pullen-us-anzac-day-eve-tickets-1316980958499?aff=ebdssbdestsearch,-37.8179755,144.9644539,
We Rise Bayside/Glen Eira: Finding Calm Amid the Chaos of a Demanding Life,2025-04-24,11:00,hotel brighton,"286 bay street brighton, VIC 4017",https://www.eventbrite.com.au/e/we-rise-baysideglen-eira-finding-calm-amid-the-chaos-of-a-demanding-life-tickets-1303882290029?aff=ebdssbdestsearch,-37.9056749,145.0017201,
Brews & Brainstorming,2025-04-24,18:30,Stomping Ground Brewery & Beer Hall - Collingwood,"100 Gipps Street Collingwood, VIC 3066",https://www.eventbrite.com/e/brews-brainstorming-tickets-1306636317399?aff=ebdssbdestsearch,-37.8046086,144.9910245,
ORANGE CRUSH,2025-04-24,07:30,The Old Bar,"74-76 Johnston Street Fitzroy, VIC 3065",https://www.eventbrite.com/e/orange-crush-tickets-1314713265769?aff=ebdssbdestsearch,-37.7983504,144.977068,
Mélange at The Valiant Bar// Part 2,2025-04-24,19:30,level 1/412 Little Collins St,"412 Little Collins Street level 1 Melbourne, VIC 3000",https://www.eventbrite.com.au/e/melange-at-the-valiant-bar-part-2-tickets-1317171006939?aff=ebdssbdestsearch,-37.8157453,144.9607827,
Adult Beginner Tap,2025-04-24,14:00,Dance Factory,"225 Swan Street Richmond, VIC 3121",https://www.eventbrite.com.au/e/adult-beginner-tap-tickets-1317166082209?aff=ebdssbdestsearch,-37.8257354,144.9998261,
Anzac Eve Neon Glow Party,2025-04-24,21:00,Love Machine,"228a Malvern Rd Prahran, VIC 3181",https://www.eventbrite.com.au/e/anzac-eve-neon-glow-party-tickets-1316132089509?aff=ebdssbdestsearch,-37.8471331,144.9948088,
Mum's Creative Club,2025-04-24,10:00,Mayfield Pottery Studios,"2 Mayfield Street Abbotsford, VIC 3067",https://www.eventbrite.com.au/e/mums-creative-club-tickets-1281636933569?aff=ebdssbdestsearch,-37.8082479,145.0003979,
Adult Beginner Ballet,2025-04-24,06:30,Dance Factory,"225 Swan Street Richmond, VIC 3121",https://www.eventbrite.com.au/e/adult-beginner-ballet-tickets-1118426155739?aff=ebdssbdestsearch,-37.8257354,144.9998261,
Welcome to Travel - The Great Escape (Escape Room) - Melbourne,2025-04-24,18:30,The Great Escape Melbourne,"199 Grattan Street Carlton, VIC 3053",https://www.eventbrite.com.au/e/welcome-to-travel-the-great-escape-escape-room-melbourne-tickets-1215874105179?aff=ebdssbdestsearch,-37.8004357,144.9620318,
"Blue Lotus Ceremony: Meditation, Herbal Energetics + Sound Healing",2025-04-24,18:00,Tree of Life Integral Centre,"3 Denmark Street Kew, VIC 3101",https://www.eventbrite.com.au/e/blue-lotus-ceremony-meditation-herbal-energetics-sound-healing-tickets-1318447344499?aff=ebdssbdestsearch,-37.8132659,145.027641,
Data Compliance and Cyber Security Group,2025-04-24,18:00,Cornwalls,"380 Collins Street level 4 Melbourne, VIC 3000",https://www.eventbrite.com.au/e/data-compliance-and-cyber-security-group-tickets-1114675567629?aff=ebdssbdestsearch,-37.81649410000001,144.961916,
Melbourne Gay Men Singles Night | MyCheekyGayDate,2025-04-24,19:00,The Metropolitan Hotel,"265 William Street Melbourne, VIC 3000",https://www.eventbrite.com/e/melbourne-gay-men-singles-night-mycheekygaydate-tickets-1259487173039?aff=ebdssbdestsearch,-37.812902,144.9566615,
N-SIDR MELB LONG WEEKEND ROOFTOP PARTY,2025-04-24,20:00,Top Yard Rooftop,"King Street #Rear 60 Melbourne, VIC 3000",https://www.eventbrite.com.au/e/n-sidr-melb-long-weekend-rooftop-party-tickets-1317057296829?aff=ebdssbdestsearch,-37.8149036,144.9549857,
Digital Skills for Seniors,2025-04-24,01:15,Burnley Backyard,"49 Tudor Street Richmond, VIC 3121",https://www.eventbrite.com.au/e/digital-skills-for-seniors-tickets-1301642260039?aff=ebdssbdestsearch,-37.823214,145.0123301,
Kingston Event ”5 things to Improve the SEO on your website today!,2025-04-24,10:00,The Corner Store,"1 Swanston Street Mentone, VIC 3194",https://www.eventbrite.com.au/e/kingston-event-5-things-to-improve-the-seo-on-your-website-today-tickets-1302806592589?aff=ebdssbdestsearch,-37.981169,145.065399,
Gay Men Speed Dating | Melbourne Singles Event | Fancy a Go?,2025-04-24,19:00,The Metropolitan Hotel,"265 William Street Melbourne, VIC 3000",https://www.eventbrite.com/e/gay-men-speed-dating-melbourne-singles-event-fancy-a-go-tickets-1259545758269?aff=ebdssbdestsearch,-37.812902,144.9566615,
RAVE IN THE MARKET,2025-04-24,20:00,Il Mercato Centrale Melbourne,"546 Collins Street Melbourne, VIC 3000",https://www.eventbrite.com.au/e/rave-in-the-market-tickets-1280330867089?aff=ebdssbdestsearch,-37.8181872,144.955581,
ELEVATE YOUR PROFESSIONAL EDGE: MENTAL WELLNESS & INNOVATION IN THE AI ERA,2025-04-24,05:30,"22 Cohen Place, Melbourne VIC 3000, Australia","22 Cohen Place Melbourne, VIC 3000",https://www.eventbrite.com/e/elevate-your-professional-edge-mental-wellness-innovation-in-the-ai-era-tickets-1292652451279?aff=ebdssbdestsearch,-37.8107775,144.969144,
HYPNOTIC Ft. TILDA (FR) & EWAKE (FR),2025-04-24,21:00,my aeon,"791 Sydney Road Brunswick, VIC 3056",https://www.eventbrite.com/e/hypnotic-ft-tilda-fr-ewake-fr-tickets-1279019474679?aff=ebdssbdestsearch,-37.7581868,144.9633301,
POOF DOOF Big Doof at The Bottom End - ANZAC Day Eve,2025-04-24,21:00,The Bottom End,"579 Little Collins Street Melbourne, VIC 3000",https://www.eventbrite.com.au/e/poof-doof-big-doof-at-the-bottom-end-anzac-day-eve-tickets-1254093741139?aff=ebdssbdestsearch,-37.8177944,144.955548,
Sue Evans presents: Herbalists & Plants - cultivating connection,2025-04-24,07:30,"Bargoonga Nganjin, North Fitzroy Library","182-186 Saint Georges Road Fitzroy North, VIC 3068",https://www.eventbrite.com/e/sue-evans-presents-herbalists-plants-cultivating-connection-tickets-1314284112159?aff=ebdssbdestsearch,-37.7847278,144.9828535,
Tromba Latin Fiesta Anzac Day Eve,2025-04-24,21:00,Ms Collins,"425 Collins Street Melbourne, VIC 3000",https://www.eventbrite.com.au/e/tromba-latin-fiesta-anzac-day-eve-tickets-1318364416459?aff=ebdssbdestsearch,-37.8174565,144.9606326,
Live Slug Reaction “Lavender Town” Launch w/ Operation: and Sponge,2025-04-24,19:30,280 Sydney Rd,"280 Sydney Road Brunswick, VIC 3056",https://www.eventbrite.com.au/e/live-slug-reaction-lavender-town-launch-w-operation-and-sponge-tickets-1296415356229?aff=ebdssbdestsearch,-37.7711488,144.9616353,
KEVIN SILVESTER: Live,2025-04-24,19:00,Stay Gold,"133 Sydney Road Brunswick, VIC 3056",https://www.eventbrite.com.au/e/kevin-silvester-live-tickets-1258969976089?aff=ebdssbdestsearch,-37.77435880000001,144.9606103,
Adult Beginner Jazz,2025-04-24,07:30,Dance Factory,"225 Swan Street Richmond, VIC 3121",https://www.eventbrite.com.au/e/adult-beginner-jazz-tickets-1118430749479?aff=ebdssbdestsearch,-37.8257354,144.9998261,
Melbourne speed dating for ages 26-44 by Cheeky Events Australia,2025-04-24,19:00,Bar Blanco,"102 Chapel Street Windsor Melbourne, VIC 3181",https://www.eventbrite.com.au/e/melbourne-speed-dating-for-ages-26-44-by-cheeky-events-australia-tickets-1020580191827?aff=ebdssbdestsearch,-37.854455,144.993076,
Brooklyn '86 Brass Band at The Lomond Hotel.,2025-04-24,20:30,The Lomond Hotel,"225 Nicholson Street Brunswick East, VIC 3057",https://www.eventbrite.com.au/e/brooklyn-86-brass-band-at-the-lomond-hotel-tickets-1304938940499?aff=ebdssbdestsearch,-37.7670861,144.9800057,
Conscious Connection | Pitch Your Single Friend (ages 25 - 40),2025-04-24,06:30,Bridge Hotel,"642 Bridge Road Upstairs Richmond, VIC 3121",https://www.eventbrite.com.au/e/conscious-connection-pitch-your-single-friend-ages-25-40-tickets-1266879965079?aff=ebdssbdestsearch,-37.8202131,145.0134924,
"The Audreys -  Ruin & Repair Album Tour 2025 | Brunswick, VIC.",2025-04-25,18:30,Brunswick Ballroom,"314 Sydney Rd, Brunswick VIC 3056, Australia",https://www.facebook.com/events/1632562460707758/,-37.7704205,144.9617083,Music
"(Sat, Apr 25) GYPSY LOVERS (EP Launch) + PENNY IKINGER'S MARBLES",2025-04-25,00:00,George Lane St Kilda,"1 George Ln, St Kilda VIC 3182, Australia",https://www.facebook.com/events/673670685223358/,-37.85997305,144.9780306,Music
Sin City Beer Garden Blow-out @ The Retreat w/ W.O.M.B.A.T & AC Saunders,2025-04-25,15:00,Retreat Hotel,"Level 1/280 Sydney Rd, Brunswick VIC 3056, Australia",https://www.facebook.com/events/1214393633726803/,-37.7711487,144.9615949,
Adam Hattaway + The Rayes at The Merri Creek Tav,2025-04-25,20:00,The Merri Creek Tavern,"111 High St, Northcote VIC 3070, Australia",https://www.facebook.com/events/9707030435986130/,-37.7794356,144.996838,Music
Anime Music Festival 2025,2025-04-25,19:00,Stay Gold,"133 Sydney Road Brunswick, VIC 3056",https://www.eventbrite.com.au/e/anime-music-festival-2025-tickets-1172665998569?aff=ebdssbdestsearch,-37.7743822,144.9606172,
MEL - Mood Swing & Chevy Bass BLOCK PARTY ft. The Sponges (US) Wongo (QLD),2025-04-25,15:00,Howler,"7-11 Dawson St, Brunswick VIC 3056, Australia",https://www.facebook.com/events/561087297084746/,-37.7720304,144.9596527,
80's ZONE......DEBUT @ LI3G,2025-04-25,20:00,Lucky 13 Garage,"8 Cochranes Rd, Moorabbin VIC 3189, Australia",https://www.facebook.com/events/662644542915394/,-37.94349189,145.07036236060654,Music
𝑹𝒆𝒏𝒅𝒊𝒕𝒊𝒐𝒏 𝒑𝒓𝒆𝒔. 𝑴𝒂𝒕𝒓𝒊𝒂𝒓𝒌 (𝑫𝑲) + 𝒐𝒍𝒆𝒔𝒊𝒂 (𝑼𝑲),2025-04-25,21:00,24 Moons,"2 Arthurton Rd, Northcote VIC 3070, Australia",https://www.facebook.com/events/3127563927409107/,-37.7691418,144.9982614,Unknown
District 1 ╳ 叁人游戏,2025-04-25,22:30,District 1,"228A Malvern Road Prahran, VIC 3181",https://www.eventbrite.com.au/e/district-1-tickets-1306154536379?aff=ebdssbdestsearch,-37.8471331,144.9948088,
"Dennis Double EP Launch ""for imogen // love, dennis""",2025-04-25,19:00,THE CURTIN (John Curtin hotel),"29 Lygon St, Carlton VIC 3053, Australia",https://www.facebook.com/events/633235282974129/,-37.8061581,144.9657057,Music
Power House at Customs House - Anzac Day,2025-04-25,14:00,Customs House Hotel Williamstown,"161 Nelson Pl, Williamstown VIC 3016, Australia",https://www.facebook.com/events/530056589862719/,-37.8630972,144.904029,Music
Juno | Melbourne | The Pity Party Tour | with Jewel Owusu,2025-04-25,19:00,Bergy Bandroom,"64 Sydney Rd, Brunswick VIC 3056, Australia",https://www.facebook.com/events/651582167270557/,-37.776327,144.9607158,Music
150 BPM PRES: 150% LIVE HARDWARE DAY PARTY @ MY AEON,2025-04-25,16:00,my aeon,"791 Sydney Road Brunswick, VIC 3056",https://www.eventbrite.com.au/e/150-bpm-pres-150-live-hardware-day-party-my-aeon-tickets-1302863151759?aff=ebdssbdestsearch,-37.7581868,144.9633301,
Anzac Day Party,2025-04-25,20:00,El Giza Restaurant & Bar,"152-154 Lygon Street Carlton, VIC 3053",https://www.eventbrite.com.au/e/anzac-day-party-tickets-1301793662889?aff=ebdssbdestsearch,-37.80358210000001,144.9666964,
2025 ANZAC Day clash - Bombers V Pies,2025-04-25,14:00,Secret Garden Bar,"60 Fitzroy Street #7 St Kilda, VIC 3182",https://www.eventbrite.com.au/e/2025-anzac-day-clash-bombers-v-pies-tickets-1285382115509?aff=ebdssbdestsearch,-37.8592634,144.9773182,
Rhythmic Ecstatic Dance: Rhythmic FUSION,2025-04-25,06:30,Summer Healing,"30-32 Sydney Road #1 Brunswick, VIC 3056",https://www.eventbrite.com.au/e/rhythmic-ecstatic-dance-rhythmic-fusion-tickets-1318477344229?aff=ebdssbdestsearch,-37.776965,144.960808,
PRIVATE CELLAR: Clarendon Hills Dinner,2025-04-25,19:00,"Life's Too Short Bar, Tribeca Arcade, Victoria Parade, East Melbourne VIC, Australia","412 Victoria Parade #Shop 2 East Melbourne, VIC 3002",https://www.eventbrite.com.au/e/private-cellar-clarendon-hills-dinner-tickets-958617519807?aff=ebdssbdestsearch,-37.8096207,144.985273,
B.I HYPE UP TOUR,2025-04-25,19:30,Festival Hall,"300 Dudley St, West Melbourne VIC 3003, Australia",https://www.facebook.com/events/1496960170949894/,-37.8098193,144.9508057,Music
Paint and Sip in Melbourne: Red Poppy,2025-04-25,18:30,Ladder Art Space,"4/81 Denmark St Kew, VIC 3101",https://www.eventbrite.com.au/e/paint-and-sip-in-melbourne-red-poppy-tickets-1257000254599?aff=ebdssbdestsearch,-37.8089958,145.0285779,
GROND at the Retreat w/ Gecko + Favoured State + Dolls,2025-04-25,19:30,280 Sydney Rd,"280 Sydney Road Brunswick, VIC 3056",https://www.eventbrite.com.au/e/grond-at-the-retreat-w-gecko-favoured-state-dolls-tickets-1288961872659?aff=ebdssbdestsearch,-37.7711488,144.9616353,
Final Fridays: Film + Music Industry Night Melbourne,2025-04-25,19:00,Inuman,"167 Exhibition Street Melbourne, VIC 3000",https://www.eventbrite.com/e/final-fridays-film-music-industry-night-melbourne-tickets-1306172309539?aff=ebdssbdestsearch,-37.8116801,144.9701812,
"ANZAC DAY ~ LIBERATION: GONG BATH, YIN, CHAI+ COOKIES",2025-04-25,19:00,Green Monday Studios,"73 Grattan Street Carlton, VIC 3053",https://www.eventbrite.com/e/anzac-day-liberation-gong-bath-yin-chai-cookies-tickets-1264657046269?aff=ebdssbdestsearch,-37.8009462,144.9671792,
Tantric Dance Essence - launch event,2025-04-25,06:30,99 Leinster Grove,"99 Leinster Grove Thornbury, VIC 3071",https://www.eventbrite.com.au/e/tantric-dance-essence-launch-event-tickets-1311282965649?aff=ebdssbdestsearch,-37.7592432,144.9875222,
Melbourne Avurudu Baila 2025,2025-04-25,21:30,Brown Alley,"585 Lonsdale Street Melbourne, VIC 3000",https://www.eventbrite.com/e/melbourne-avurudu-baila-2025-tickets-1257002882459?aff=ebdssbdestsearch,-37.8145646,144.9551429,
Deborahafter50 Subscriber Meet & Greet,2025-04-25,15:00,Westfield Doncaster,"619 Doncaster Road Doncaster, VIC 3108",https://www.eventbrite.com.au/e/deborahafter50-subscriber-meet-greet-tickets-1287362147839?aff=ebdssbdestsearch,-37.7851115,145.1262028,
Tee30Golf Dashing Dads Experience,2025-04-25,06:00,Oakleigh Golf Course,"2 Park Road Chadstone, VIC 3166",https://www.eventbrite.com.au/e/tee30golf-dashing-dads-experience-tickets-1316106121839?aff=ebdssbdestsearch,-37.8913837,145.0999988,
RIDDIM COURTYARD: ANZAC WEEKEND,2025-04-25,22:00,Bourke Street Courtyard,"629 Bourke Street Melbourne, VIC 3000",https://www.eventbrite.com.au/e/riddim-courtyard-anzac-weekend-tickets-1309267988799?aff=ebdssbdestsearch,-37.8168528,144.9552468,
Frolic,2025-04-25,22:00,Inflation Entertainment Complex,"60 King Street Melbourne, VIC 3000",https://www.eventbrite.com.au/e/frolic-tickets-1257695905309?aff=ebdssbdestsearch,-37.8188863,144.9571605,
Anzac Day Boat Party,2025-04-25,19:15,Lady Cutler Melbourne Showboat,"131 Harbour Esplanade Docklands, VIC 3008",https://www.eventbrite.com.au/e/anzac-day-boat-party-tickets-1298863147639?aff=ebdssbdestsearch,-37.81707129999999,144.9453813,
